"Station","Low","Normal","High","Flow_Type","PEARSEDA","PERSEDA_CODE","StationName","Prov","Latitude","Longitude","DrainageArea","Years","From","To","Reg.","OperSched","Operator"
"01AD002",156,182,27,"Normal","Saint John - St. Croix",23,"SAINT JOHN RIVER AT FORT KENT","ME",47.25806,-68.59583,14700,93,1926,2018,FALSE,"Continuous","UNITED STATES GEOLOGICAL SURVEY"
"01AD003",70,249,46,"Normal","Saint John - St. Croix",23,"ST. FRANCIS RIVER AT OUTLET OF GLASIER LAKE","NB",47.20661,-68.95694,1350,68,1951,2018,FALSE,"Continuous","WATER SURVEY OF CANADA (DOE) (CANADA)"
"01AE001",193,165,7,"Low","Saint John - St. Croix",23,"FISH RIVER NEAR FORT KENT","ME",47.2375,-68.58278,2260,37,1981,2018,FALSE,"Continuous","UNITED STATES GEOLOGICAL SURVEY"
"01AF002",139,199,27,"Normal","Saint John - St. Croix",23,"SAINT JOHN RIVER AT GRAND FALLS","NB",47.03889,-67.73972,21900,90,1930,2019,TRUE,"Continuous","WATER SURVEY OF CANADA (DOE) (CANADA)"
"01AF007",128,211,26,"Normal","Saint John - St. Croix",23,"GRANDE RIVIERE AT VIOLETTE BRIDGE","NB",47.24697,-67.92128,339,43,1977,2019,FALSE,"Continuous","WATER SURVEY OF CANADA (DOE) (CANADA)"
"01AG003",173,154,38,"Low","Saint John - St. Croix",23,"AROOSTOOK RIVER NEAR TINKER","NB",46.81636,-67.75197,6060,44,1975,2018,TRUE,"Continuous","WATER SURVEY OF CANADA (DOE) (CANADA)"
"01AH002",162,180,23,"Normal","Saint John - St. Croix",23,"TOBIQUE RIVER AT RILEY BROOK","NB",47.17303,-67.21081,2230,66,1954,2019,TRUE,"Continuous","WATER SURVEY OF CANADA (DOE) (CANADA)"
"01AJ003",236,112,17,"Low","Saint John - St. Croix",23,"MEDUXNEKEAG RIVER NEAR BELLEVILLE","NB",46.21622,-67.72794,1210,53,1967,2019,FALSE,"Continuous","WATER SURVEY OF CANADA (DOE) (CANADA)"
"01AJ004",249,103,13,"Low","Saint John - St. Croix",23,"BIG PRESQUE ISLE STREAM AT TRACEY MILLS","NB",46.43836,-67.73844,484,53,1967,2019,FALSE,"Continuous","WATER SURVEY OF CANADA (DOE) (CANADA)"
"01AJ010",269,92,4,"Low","Saint John - St. Croix",23,"BECAGUIMEC STREAM AT COLDSTREAM","NB",46.34089,-67.46511,350,46,1973,2018,FALSE,"Continuous","WATER SURVEY OF CANADA (DOE) (CANADA)"
"01AK001",214,121,30,"Low","Saint John - St. Croix",23,"SHOGOMOC STREAM NEAR TRANS CANADA HIGHWAY","NB",45.94353,-67.32036,234,100,1918,2018,FALSE,"Continuous","WATER SURVEY OF CANADA (DOE) (CANADA)"
"01AK006",108,236,21,"Normal","Saint John - St. Croix",23,"MIDDLE BRANCH NASHWAAKSIS STREAM AT SANDWITH'S FARM","NB",46.08281,-66.73303,5.7,53,1966,2018,FALSE,"Continuous","WATER SURVEY OF CANADA (DOE) (CANADA)"
"01AK007",193,153,19,"Low","Saint John - St. Croix",23,"NACKAWIC STREAM NEAR TEMPERANCE VALE","NB",46.04878,-67.23961,240,52,1967,2018,FALSE,"Continuous","WATER SURVEY OF CANADA (DOE) (CANADA)"
"01AL002",223,128,14,"Low","Saint John - St. Croix",23,"NASHWAAK RIVER AT DURHAM BRIDGE","NB",46.12592,-66.61131,1450,58,1962,2019,FALSE,"Continuous","WATER SURVEY OF CANADA (DOE) (CANADA)"
"01AL004",265,88,12,"Low","Saint John - St. Croix",23,"NARROWS MOUNTAIN BROOK NEAR NARROWS MOUNTAIN","NB",46.27717,-67.02139,3.89,47,1972,2018,FALSE,"Continuous","WATER SURVEY OF CANADA (DOE) (CANADA)"
"01AM001",249,86,30,"Low","Saint John - St. Croix",23,"NORTH BRANCH OROMOCTO RIVER AT TRACY","NB",45.67378,-66.68289,557,57,1962,2018,FALSE,"Continuous","WATER SURVEY OF CANADA (DOE) (CANADA)"
"01AN002",208,124,33,"Low","Saint John - St. Croix",23,"SALMON RIVER AT CASTAWAY","NB",46.29072,-65.72275,1050,45,1974,2018,FALSE,"Continuous","WATER SURVEY OF CANADA (DOE) (CANADA)"
"01AP002",221,115,29,"Low","Saint John - St. Croix",23,"CANAAN RIVER AT EAST CANAAN","NB",46.07236,-65.36639,668,75,1925,2019,FALSE,"Continuous","WATER SURVEY OF CANADA (DOE) (CANADA)"
"01AP004",249,87,29,"Low","Saint John - St. Croix",23,"KENNEBECASIS RIVER AT APOHAQUI","NB",45.70139,-65.60169,1100,59,1961,2019,FALSE,"Continuous","WATER SURVEY OF CANADA (DOE) (CANADA)"
"01AQ001",222,116,27,"Low","Saint John - St. Croix",23,"LEPREAU RIVER AT LEPREAU","NB",45.16978,-66.46828,239,104,1916,2019,FALSE,"Continuous","WATER SURVEY OF CANADA (DOE) (CANADA)"
"01AQ002",213,135,17,"Low","Saint John - St. Croix",23,"MAGAGUADAVIC RIVER AT ELMCROFT","NB",45.27333,-66.80667,1420,94,1917,2019,TRUE,"Continuous","WATER SURVEY OF CANADA (DOE) (CANADA)"
"01AR004",129,227,9,"Normal","Saint John - St. Croix",23,"ST. CROIX RIVER AT VANCEBORO","ME",45.56889,-67.42972,1080,92,1928,2019,TRUE,"Continuous","UNITED STATES GEOLOGICAL SURVEY"
"01AR005",262,96,7,"Low","Saint John - St. Croix",23,"ST. CROIX RIVER AT BARING","ME",45.13667,-67.31806,3550,45,1975,2019,TRUE,"Continuous","UNITED STATES GEOLOGICAL SURVEY"
"01AR006",211,131,23,"Low","Saint John - St. Croix",23,"DENNIS STREAM NEAR ST. STEPHEN","NB",45.20903,-67.26215,115,54,1966,2019,TRUE,"Continuous","WATER SURVEY OF CANADA (DOE) (CANADA)"
"01AR011",258,98,9,"Low","Saint John - St. Croix",23,"FOREST CITY STREAM BELOW FOREST CITY DAM","ME",45.66417,-67.73356,357,46,1975,2020,TRUE,"Continuous","WATER SURVEY OF CANADA (DOE) (CANADA)"
"01BC001",119,228,18,"Normal","Maritime Coastal",24,"RESTIGOUCHE RIVER BELOW KEDGWICK RIVER","NB",47.66708,-67.48308,3160,58,1962,2019,FALSE,"Continuous","WATER SURVEY OF CANADA (DOE) (CANADA)"
"01BD008",96,201,13,"Normal","Maritime Coastal",24,"MATAPEDIA (RIVIERE) PRES DE AMQUI","QC",48.49167,-67.45,558,34,1982,2019,FALSE,"Continuous","MINISTERE DE L'ENVIRONNEMENT DU QUEBEC"
"01BE001",185,168,12,"Low","Maritime Coastal",24,"UPSALQUITCH RIVER AT UPSALQUITCH","NB",47.83247,-66.88708,2270,93,1918,2019,FALSE,"Continuous","WATER SURVEY OF CANADA (DOE) (CANADA)"
"01BG005",139,201,25,"Normal","Maritime Coastal",24,"CASCAPEDIA (RIVIERE) EN AVAL DU RUISSEAU BERRY","QC",48.62833,-66.16806,1680,43,1978,2020,FALSE,"Continuous","MINISTERE DE L'ENVIRONNEMENT DU QUEBEC"
"01BG009",103,231,31,"Normal","Maritime Coastal",24,"BONAVENTURE (RIVIERE) EN AMONT DU RUISSEAU CREUX","QC",48.18611,-65.55861,1910,39,1982,2020,FALSE,"Continuous","MINISTERE DE L'ENVIRONNEMENT DU QUEBEC"
"01BJ003",179,158,28,"Low","Maritime Coastal",24,"JACQUET RIVER NEAR DURHAM CENTRE","NB",47.89381,-66.02522,510,55,1964,2018,FALSE,"Continuous","WATER SURVEY OF CANADA (DOE) (CANADA)"
"01BJ007",137,211,17,"Normal","Maritime Coastal",24,"RESTIGOUCHE RIVER ABOVE RAFTING GROUND BROOK","NB",47.90867,-66.94806,7740,52,1968,2019,FALSE,"Continuous","WATER SURVEY OF CANADA (DOE) (CANADA)"
"01BJ010",171,165,29,"Low","Maritime Coastal",24,"MIDDLE RIVER NEAR BATHURST","NB",47.60839,-65.72181,217,38,1981,2018,FALSE,"Continuous","WATER SURVEY OF CANADA (DOE) (CANADA)"
"01BJ012",186,158,21,"Low","Maritime Coastal",24,"EEL RIVER NEAR DUNDEE","NB",47.98789,-66.49061,43.2,35,1984,2018,FALSE,"Continuous","WATER SURVEY OF CANADA (DOE) (CANADA)"
"01BL002",97,211,57,"Normal","Maritime Coastal",24,"RIVIERE CARAQUET AT BURNSVILLE","NB",47.70561,-65.15539,173,50,1969,2018,FALSE,"Continuous","WATER SURVEY OF CANADA (DOE) (CANADA)"
"01BL003",171,153,41,"Low","Maritime Coastal",24,"BIG TRACADIE RIVER AT MURCHY BRIDGE CROSSING","NB",47.43578,-65.10606,383,49,1970,2018,FALSE,"Continuous","WATER SURVEY OF CANADA (DOE) (CANADA)"
"01BO001",203,147,15,"Low","Maritime Coastal",24,"SOUTHWEST MIRAMICHI RIVER AT BLACKVILLE","NB",46.736,-65.82561,5050,77,1918,2019,FALSE,"Continuous","WATER SURVEY OF CANADA (DOE) (CANADA)"
"01BP001",228,128,9,"Low","Maritime Coastal",24,"LITTLE SOUTHWEST MIRAMICHI RIVER AT LYTTLETON","NB",46.93597,-65.90739,1340,69,1951,2019,FALSE,"Continuous","WATER SURVEY OF CANADA (DOE) (CANADA)"
"01BQ001",158,188,19,"Normal","Maritime Coastal",24,"NORTHWEST MIRAMICHI RIVER AT TROUT BROOK","NB",47.09475,-65.8365,948,59,1961,2019,FALSE,"Continuous","WATER SURVEY OF CANADA (DOE) (CANADA)"
"01BS001",178,151,36,"Low","Maritime Coastal",24,"COAL BRANCH RIVER AT BEERSVILLE","NB",46.44394,-65.06494,166,56,1964,2019,FALSE,"Continuous","WATER SURVEY OF CANADA (DOE) (CANADA)"
"01BU002",190,134,41,"Low","Maritime Coastal",24,"PETITCODIAC RIVER NEAR PETITCODIAC","NB",45.94639,-65.16819,391,59,1961,2019,FALSE,"Continuous","WATER SURVEY OF CANADA (DOE) (CANADA)"
"01BU003",247,86,32,"Low","Maritime Coastal",24,"TURTLE CREEK AT TURTLE CREEK","NB",45.9595,-64.878,129,49,1962,2010,FALSE,"Continuous","WATER SURVEY OF CANADA (DOE) (CANADA)"
"01BV006",242,92,31,"Low","Maritime Coastal",24,"POINT WOLFE RIVER AT FUNDY NATIONAL PARK","NB",45.55856,-65.01597,130,56,1964,2019,FALSE,"Continuous","WATER SURVEY OF CANADA (DOE) (CANADA)"
"01CA003",176,156,33,"Low","Maritime Coastal",24,"CARRUTHERS BROOK NEAR ST. ANTHONY","PE",46.74411,-64.187,46.8,59,1961,2019,FALSE,"Continuous","WATER SURVEY OF CANADA (DOE) (CANADA)"
"01CB002",149,151,65,"Normal","Maritime Coastal",24,"DUNK RIVER AT WALL ROAD","PE",46.34586,-63.63333,114,59,1961,2019,TRUE,"Continuous","WATER SURVEY OF CANADA (DOE) (CANADA)"
"01CB004",112,197,56,"Normal","Maritime Coastal",24,"WILMOT RIVER NEAR WILMOT VALLEY","PE",46.39331,-63.65939,45.4,48,1972,2019,TRUE,"Continuous","WATER SURVEY OF CANADA (DOE) (CANADA)"
"01CC002",113,171,81,"Normal","Maritime Coastal",24,"WINTER RIVER NEAR SUFFOLK","PE",46.33206,-63.06547,37.5,53,1967,2019,TRUE,"Continuous","WATER SURVEY OF CANADA (DOE) (CANADA)"
"01DC005",179,150,36,"Low","Maritime Coastal",24,"ANNAPOLIS RIVER AT WILMOT","NS",44.94919,-65.02939,546,57,1963,2019,TRUE,"Continuous","WATER SURVEY OF CANADA (DOE) (CANADA)"
"01DG003",200,124,41,"Low","Maritime Coastal",24,"BEAVERBANK RIVER NEAR KINSAC","NS",44.85111,-63.66389,96.9,99,1921,2019,FALSE,"Continuous","WATER SURVEY OF CANADA (DOE) (CANADA)"
"01DL001",199,137,29,"Low","Maritime Coastal",24,"KELLEY RIVER (MILL CREEK) AT EIGHT MILE FORD","NS",45.58681,-64.45069,63.2,50,1969,2019,FALSE,"Continuous","WATER SURVEY OF CANADA (DOE) (CANADA)"
"01DP004",242,90,33,"Low","Maritime Coastal",24,"MIDDLE RIVER OF PICTOU AT ROCKLIN","NS",45.49739,-62.78019,92.2,55,1965,2019,FALSE,"Continuous","WATER SURVEY OF CANADA (DOE) (CANADA)"
"01DR001",197,101,67,"Low","Maritime Coastal",24,"SOUTH RIVER AT ST. ANDREWS","NS",45.55972,-61.90364,177,72,1917,2019,FALSE,"Continuous","WATER SURVEY OF CANADA (DOE) (CANADA)"
"01EC001",192,148,25,"Low","Maritime Coastal",24,"ROSEWAY RIVER AT LOWER OHIO","NS",43.83736,-65.36911,495,105,1915,2019,FALSE,"Continuous","WATER SURVEY OF CANADA (DOE) (CANADA)"
"01ED007",249,79,37,"Low","Maritime Coastal",24,"MERSEY RIVER BELOW MILL FALLS","NS",44.43678,-65.22186,295,52,1968,2019,FALSE,"Continuous","WATER SURVEY OF CANADA (DOE) (CANADA)"
"01EE005",130,190,45,"Normal","Maritime Coastal",24,"MOOSE PIT BROOK AT TUPPER LAKE","NS",44.46183,-65.04778,17.7,39,1981,2019,FALSE,"Continuous","WATER SURVEY OF CANADA (DOE) (CANADA)"
"01EF001",206,114,45,"Low","Maritime Coastal",24,"LAHAVE RIVER AT WEST NORTHFIELD","NS",44.44744,-64.59119,1250,105,1915,2019,FALSE,"Continuous","WATER SURVEY OF CANADA (DOE) (CANADA)"
"01EJ001",191,135,39,"Low","Maritime Coastal",24,"SACKVILLE RIVER AT BEDFORD","NS",44.73153,-63.66044,146,51,1916,2019,FALSE,"Continuous","WATER SURVEY OF CANADA (DOE) (CANADA)"
"01EJ004",170,145,50,"Low","Maritime Coastal",24,"LITTLE SACKVILLE RIVER AT MIDDLE SACKVILLE","NS",44.76447,-63.6875,13.1,40,1980,2019,FALSE,"Continuous","WATER SURVEY OF CANADA (DOE) (CANADA)"
"01EO001",162,136,67,"Low","Maritime Coastal",24,"ST. MARYS RIVER AT STILLWATER","NS",45.17439,-61.97992,1350,105,1915,2019,FALSE,"Continuous","WATER SURVEY OF CANADA (DOE) (CANADA)"
"01FA001",205,122,38,"Low","Maritime Coastal",24,"RIVER INHABITANTS AT GLENORA","NS",45.72025,-61.28611,193,55,1965,2019,FALSE,"Continuous","WATER SURVEY OF CANADA (DOE) (CANADA)"
"01FB001",219,90,56,"Low","Maritime Coastal",24,"NORTHEAST MARGAREE RIVER AT MARGAREE VALLEY","NS",46.36897,-60.97528,368,104,1916,2019,FALSE,"Continuous","WATER SURVEY OF CANADA (DOE) (CANADA)"
"01FB003",263,43,59,"Low","Maritime Coastal",24,"SOUTHWEST MARGAREE RIVER NEAR UPPER MARGAREE","NS",46.22311,-61.13692,357,102,1918,2019,FALSE,"Continuous","WATER SURVEY OF CANADA (DOE) (CANADA)"
"01FC002",238,68,59,"Low","Maritime Coastal",24,"CHETICAMP RIVER ABOVE ROBERT BROOK","NS",46.64158,-60.94611,190,61,1958,2019,TRUE,"Continuous","WATER SURVEY OF CANADA (DOE) (CANADA)"
"01FE002",256,64,45,"Low","Maritime Coastal",24,"INDIAN BROOK AT INDIAN BROOK","NS",46.37172,-60.53369,125,57,1960,2019,TRUE,"Continuous","WATER SURVEY OF CANADA (DOE) (CANADA)"
"01FJ002",206,129,30,"Low","Maritime Coastal",24,"MACASKILLS BROOK NEAR BIRCH GROVE","NS",46.11789,-60.00467,17.2,42,1978,2019,FALSE,"Continuous","WATER SURVEY OF CANADA (DOE) (CANADA)"
"02AB006",132,185,48,"Normal","Great Lakes",19,"KAMINISTIQUIA RIVER AT KAMINISTIQUIA","ON",48.53231,-89.595,6470,94,1926,2019,TRUE,"Continuous","WATER SURVEY OF CANADA (DOE) (CANADA)"
"02AB008",174,125,66,"Low","Great Lakes",19,"NEEBING RIVER NEAR THUNDER BAY","ON",48.38339,-89.30656,187,67,1953,2019,FALSE,"Continuous","WATER SURVEY OF CANADA (DOE) (CANADA)"
"02AB017",62,201,102,"Normal","Great Lakes",19,"WHITEFISH RIVER AT NOLALU","ON",48.29211,-89.80986,226,40,1980,2019,FALSE,"Continuous","WATER SURVEY OF CANADA (DOE) (CANADA)"
"02AC001",135,144,86,"Normal","Great Lakes",19,"WOLF RIVER AT HIGHWAY NO. 17","ON",48.82169,-88.53461,726,49,1971,2020,FALSE,"Continuous","WATER SURVEY OF CANADA (DOE) (CANADA)"
"02AC002",131,148,86,"Normal","Great Lakes",19,"BLACK STURGEON RIVER AT HIGHWAY NO. 17","ON",48.90422,-88.37686,2980,49,1971,2019,FALSE,"Continuous","WATER SURVEY OF CANADA (DOE) (CANADA)"
"02AD010",134,171,60,"Normal","Great Lakes",19,"BLACKWATER RIVER AT BEARDMORE","ON",49.59761,-87.96544,652,49,1971,2019,FALSE,"Continuous","WATER SURVEY OF CANADA (DOE) (CANADA)"
"02BA003",188,112,65,"Low","Great Lakes",19,"LITTLE PIC RIVER NEAR COLDWELL","ON",48.84911,-86.60722,1320,49,1972,2020,FALSE,"Continuous","WATER SURVEY OF CANADA (DOE) (CANADA)"
"02BB003",174,127,64,"Low","Great Lakes",19,"PIC RIVER NEAR MARATHON","ON",48.77408,-86.29661,4220,51,1970,2020,FALSE,"Continuous","WATER SURVEY OF CANADA (DOE) (CANADA)"
"02BB004",156,150,59,"Low","Great Lakes",19,"CEDAR CREEK NEAR HEMLO","ON",48.70542,-85.90794,210,37,1984,2020,TRUE,"Continuous","WATER SURVEY OF CANADA (DOE) (CANADA)"
"02BC004",191,128,46,"Low","Great Lakes",19,"WHITE RIVER BELOW WHITE LAKE","ON",48.6548,-85.74153,4160,57,1959,2015,TRUE,"Continuous","WATER SURVEY OF CANADA (DOE) (CANADA)"
"02BD002",148,157,60,"Normal","Great Lakes",19,"MICHIPICOTEN RIVER AT SCOTT FALLS","ON",47.91083,-84.74333,5310,100,1920,2019,TRUE,"Continuous","GREAT LAKES POWER COMPANY LIMITED"
"02BE002",146,143,76,"Low","Great Lakes",19,"MONTREAL RIVER NEAR MONTREAL RIVER HARBOUR","ON",47.21389,-84.61944,2880,85,1935,2019,TRUE,"Continuous","GREAT LAKES POWER COMPANY LIMITED"
"02BF001",173,137,55,"Low","Great Lakes",19,"BATCHAWANA RIVER NEAR BATCHAWANA","ON",47.00353,-84.51556,1230,54,1967,2020,FALSE,"Continuous","WATER SURVEY OF CANADA (DOE) (CANADA)"
"02BF002",171,88,106,"Low","Great Lakes",19,"GOULAIS RIVER NEAR SEARCHMONT","ON",46.86094,-83.97181,1140,54,1967,2020,FALSE,"Continuous","WATER SURVEY OF CANADA (DOE) (CANADA)"
"02BF004",149,134,82,"Low","Great Lakes",19,"BIG CARP RIVER NEAR SAULT STE. MARIE","ON",46.51589,-84.46518,51,42,1979,2020,FALSE,"Continuous","WATER SURVEY OF CANADA (DOE) (CANADA)"
"02BF005",89,195,81,"Normal","Great Lakes",19,"NORBERG CREEK (SITE A) ABOVE BATCHAWANA RIVER","ON",47.06253,-84.43072,10.4,37,1980,2016,FALSE,"Continuous","WATER SURVEY OF CANADA (DOE) (CANADA)"
"02BF006",96,183,86,"Normal","Great Lakes",19,"NORBERG CREEK (SITE B) AT OUTLET OF TURKEY LAKE","ON",47.05053,-84.41278,8.03,38,1979,2016,FALSE,"Continuous","WATER SURVEY OF CANADA (DOE) (CANADA)"
"02BF007",115,170,80,"Normal","Great Lakes",19,"NORBERG CREEK (SITE C) AT OUTLET OF LITTLE TURKEY LAKE","ON",47.04472,-84.41025,5.05,36,1981,2016,FALSE,"Continuous","WATER SURVEY OF CANADA (DOE) (CANADA)"
"02BF008",66,228,71,"Normal","Great Lakes",19,"NORBERG CREEK (SITE D) BELOW WISHART LAKE","ON",47.04625,-84.40319,4.08,37,1980,2016,FALSE,"Continuous","WATER SURVEY OF CANADA (DOE) (CANADA)"
"02BF009",49,245,71,"Normal","Great Lakes",19,"NORBERG CREEK (SITE E) BELOW BATCHAWANA LAKE","ON",47.05778,-84.4,2.04,36,1981,2016,FALSE,"Continuous","WATER SURVEY OF CANADA (DOE) (CANADA)"
"02BF012",47,256,62,"Normal","Great Lakes",19,"NORBERG CREEK (SITE F) AT OUTLET OF BATCHAWANA LAKE","ON",47.06281,-84.39253,1.15,35,1982,2016,FALSE,"Continuous","WATER SURVEY OF CANADA (DOE) (CANADA)"
"02CA002",85,170,110,"Normal","Great Lakes",19,"ROOT RIVER AT SAULT STE. MARIE","ON",46.56286,-84.28169,109,50,1971,2020,FALSE,"Continuous","WATER SURVEY OF CANADA (DOE) (CANADA)"
"02CB003",175,75,115,"Low","Great Lakes",19,"AUBINADONG RIVER ABOVE SESABIC CREEK","ON",46.96842,-83.41686,1450,41,1980,2020,FALSE,"Continuous","WATER SURVEY OF CANADA (DOE) (CANADA)"
"02CC005",145,99,121,"Low","Great Lakes",19,"LITTLE WHITE RIVER NEAR BELLINGHAM","ON",46.39395,-83.28298,1970,79,1942,2020,TRUE,"Continuous","WATER SURVEY OF CANADA (DOE) (CANADA)"
"02CC008",88,161,116,"Normal","Great Lakes",19,"MISSISSAGI RIVER AT MISSISSAGI CHUTE","ON",46.20136,-83.02539,9260,62,1940,2011,TRUE,"Continuous","WATER SURVEY OF CANADA (DOE) (CANADA)"
"02CC010",139,108,118,"Low","Great Lakes",19,"LITTLE WHITE RIVER BELOW BOLAND RIVER","ON",46.58114,-82.968,1210,41,1980,2020,TRUE,"Continuous","WATER SURVEY OF CANADA (DOE) (CANADA)"
"02CD001",126,107,132,"High","Great Lakes",19,"SERPENT RIVER AT HIGHWAY NO. 17","ON",46.21078,-82.51242,1350,55,1966,2020,TRUE,"Continuous","WATER SURVEY OF CANADA (DOE) (CANADA)"
"02CD006",160,74,131,"Low","Great Lakes",19,"SERPENT RIVER ABOVE QUIRKE LAKE","ON",46.51158,-82.60028,157,53,1967,2019,FALSE,"Continuous","WATER SURVEY OF CANADA (DOE) (CANADA)"
"02CE002",148,84,133,"Low","Great Lakes",19,"AUX SABLES RIVER AT MASSEY","ON",46.21494,-82.07081,1340,106,1915,2020,TRUE,"Continuous","WATER SURVEY OF CANADA (DOE) (CANADA)"
"02CF007",84,153,128,"Normal","Great Lakes",19,"WHITSON RIVER AT CHELMSFORD","ON",46.58336,-81.19911,277,61,1960,2020,FALSE,"Continuous","WATER SURVEY OF CANADA (DOE) (CANADA)"
"02CF008",45,192,128,"Normal","Great Lakes",19,"WHITSON RIVER AT VAL CARON","ON",46.61017,-81.03297,179,61,1960,2020,FALSE,"Continuous","WATER SURVEY OF CANADA (DOE) (CANADA)"
"02CF012",23,213,129,"Normal","Great Lakes",19,"JUNCTION CREEK BELOW KELLEY LAKE","ON",46.42731,-81.09844,199,43,1977,2019,FALSE,"Continuous","WATER SURVEY OF CANADA (DOE) (CANADA)"
"02CF013",85,137,143,"High","Great Lakes",19,"MOOSE CREEK AT LEVACK","ON",46.63594,-81.39147,40.6,39,1981,2019,TRUE,"Continuous","WATER SURVEY OF CANADA (DOE) (CANADA)"
"02DB005",46,195,124,"Normal","Great Lakes",19,"WANAPITEI RIVER NEAR WANUP","ON",46.34567,-80.83956,3150,69,1952,2020,TRUE,"Continuous","WATER SURVEY OF CANADA (DOE) (CANADA)"
"02DB007",75,160,130,"Normal","Great Lakes",19,"CONISTON CREEK ABOVE WANAPITEI RIVER","ON",46.47528,-80.82153,59,41,1980,2020,FALSE,"Continuous","WATER SURVEY OF CANADA (DOE) (CANADA)"
"02DC004",128,94,143,"High","Great Lakes",19,"STURGEON RIVER NEAR GLEN AFTON","ON",46.63717,-80.26325,3010,63,1941,2019,TRUE,"Continuous","WATER SURVEY OF CANADA (DOE) (CANADA)"
"02DC012",163,81,121,"Low","Great Lakes",19,"STURGEON RIVER AT UPPER GOOSE FALLS","ON",46.97025,-80.45878,1200,34,1986,2019,FALSE,"Continuous","WATER SURVEY OF CANADA (DOE) (CANADA)"
"02DD010",20,237,108,"Normal","Great Lakes",19,"FRENCH RIVER AT DRY PINE BAY","ON",46.06858,-80.61164,13900,60,1961,2020,TRUE,"Continuous","WATER SURVEY OF CANADA (DOE) (CANADA)"
"02DD013",71,165,129,"Normal","Great Lakes",19,"LA VASE RIVER AT NORTH BAY","ON",46.26344,-79.39511,68.6,46,1974,2019,FALSE,"Continuous","WATER SURVEY OF CANADA (DOE) (CANADA)"
"02DD014",78,177,110,"Normal","Great Lakes",19,"CHIPPEWA CREEK AT NORTH BAY","ON",46.31178,-79.44836,35.6,46,1974,2019,FALSE,"Continuous","WATER SURVEY OF CANADA (DOE) (CANADA)"
"02DD015",110,137,118,"Normal","Great Lakes",19,"COMMANDA CREEK NEAR COMMANDA","ON",45.94919,-79.60658,104,47,1974,2020,FALSE,"Continuous","WATER SURVEY OF CANADA (DOE) (CANADA)"
"02EA005",131,146,88,"Normal","Great Lakes",19,"NORTH MAGNETAWAN RIVER NEAR BURK'S FALLS","ON",45.66947,-79.37919,329,106,1915,2020,FALSE,"Continuous","WATER SURVEY OF CANADA (DOE) (CANADA)"
"02EA010",129,145,91,"Normal","Great Lakes",19,"NORTH MAGNETAWAN RIVER ABOVE PICKEREL LAKE","ON",45.70377,-79.30879,155,53,1968,2020,FALSE,"Continuous","WATER SURVEY OF CANADA (DOE) (CANADA)"
"02EA011",123,156,86,"Normal","Great Lakes",19,"MAGNETAWAN RIVER NEAR BRITT","ON",45.77306,-80.48233,2840,48,1973,2020,TRUE,"Continuous","WATER SURVEY OF CANADA (DOE) (CANADA)"
"02EB004",118,146,101,"Normal","Great Lakes",19,"NORTH BRANCH MUSKOKA RIVER AT PORT SYDNEY","ON",45.21286,-79.27528,1410,105,1915,2019,TRUE,"Continuous","WATER SURVEY OF CANADA (DOE) (CANADA)"
"02EB006",100,197,68,"Normal","Great Lakes",19,"MUSKOKA RIVER BELOW BALA","ON",45.0225,-79.67833,4770,82,1937,2018,TRUE,"Continuous","WATER SURVEY OF CANADA (DOE) (CANADA)"
"02EB011",154,159,52,"Normal","Great Lakes",19,"MOON RIVER AT HIGHWAY NO. 400","ON",45.06506,-79.79014,4790,55,1965,2019,TRUE,"Continuous","WATER SURVEY OF CANADA (DOE) (CANADA)"
"02EB012",86,216,63,"Normal","Great Lakes",19,"MUSQUASH RIVER AT HIGHWAY NO. 400","ON",45.02253,-79.77681,NA,55,1965,2019,TRUE,"Continuous","WATER SURVEY OF CANADA (DOE) (CANADA)"
"02EB013",102,178,85,"Normal","Great Lakes",19,"BIG EAST RIVER NEAR HUNTSVILLE","ON",45.39272,-79.15994,610,48,1973,2020,TRUE,"Continuous","WATER SURVEY OF CANADA (DOE) (CANADA)"
"02EB014",116,176,73,"Normal","Great Lakes",19,"OXTONGUE RIVER NEAR DWIGHT","ON",45.31197,-78.98939,605,40,1981,2020,FALSE,"Continuous","WATER SURVEY OF CANADA (DOE) (CANADA)"
"02EC002",78,238,49,"Normal","Great Lakes",19,"BLACK RIVER NEAR WASHAGO","ON",44.71367,-79.28161,1510,106,1915,2020,FALSE,"Continuous","WATER SURVEY OF CANADA (DOE) (CANADA)"
"02EC003",99,235,31,"Normal","Great Lakes",19,"SEVERN RIVER AT SWIFT RAPIDS","ON",44.85694,-79.54167,5850,66,1953,2018,TRUE,"Continuous","ORILLIA LIGHT AND POWER"
"02EC009",115,189,61,"Normal","Great Lakes",19,"HOLLAND RIVER EAST BRANCH AT HOLLAND LANDING","ON",44.09492,-79.48956,176,56,1965,2020,FALSE,"Continuous","WATER SURVEY OF CANADA (DOE) (CANADA)"
"02ED003",68,238,59,"Normal","Great Lakes",19,"NOTTAWASAGA RIVER NEAR BAXTER","ON",44.24981,-79.82142,1230,73,1947,2019,FALSE,"Continuous","WATER SURVEY OF CANADA (DOE) (CANADA)"
"02ED007",72,212,81,"Normal","Great Lakes",19,"COLDWATER RIVER AT COLDWATER","ON",44.70719,-79.64375,168,55,1965,2019,FALSE,"Continuous","WATER SURVEY OF CANADA (DOE) (CANADA)"
"02ED014",32,258,75,"Normal","Great Lakes",19,"PINE RIVER NEAR EVERETT","ON",44.20003,-79.96,190,48,1967,2016,FALSE,"Continuous","WATER SURVEY OF CANADA (DOE) (CANADA)"
"02FA001",34,238,93,"Normal","Great Lakes",19,"SAUBLE RIVER AT SAUBLE FALLS","ON",44.67753,-81.25606,913,64,1957,2020,TRUE,"Continuous","WATER SURVEY OF CANADA (DOE) (CANADA)"
"02FA002",30,217,118,"Normal","Great Lakes",19,"STOKES RIVER NEAR FERNDALE","ON",45.03697,-81.33636,50.5,45,1976,2020,FALSE,"Continuous","WATER SURVEY OF CANADA (DOE) (CANADA)"
"02FB007",11,229,125,"Normal","Great Lakes",19,"SYDENHAM RIVER NEAR OWEN SOUND","ON",44.52225,-80.93019,183,88,1915,2020,FALSE,"Continuous","WATER SURVEY OF CANADA (DOE) (CANADA)"
"02FB009",16,216,133,"Normal","Great Lakes",19,"BEAVER RIVER NEAR CLARKSBURG","ON",44.51986,-80.46778,587,64,1957,2020,TRUE,"Continuous","WATER SURVEY OF CANADA (DOE) (CANADA)"
"02FB010",18,218,129,"Normal","Great Lakes",19,"BIGHEAD RIVER NEAR MEAFORD","ON",44.57017,-80.6485,298,64,1957,2020,FALSE,"Continuous","WATER SURVEY OF CANADA (DOE) (CANADA)"
"02FC001",11,233,121,"Normal","Great Lakes",19,"SAUGEEN RIVER NEAR PORT ELGIN","ON",44.45647,-81.32644,3950,107,1914,2020,TRUE,"Continuous","WATER SURVEY OF CANADA (DOE) (CANADA)"
"02FC002",30,219,116,"Normal","Great Lakes",19,"SAUGEEN RIVER NEAR WALKERTON","ON",44.12047,-81.11533,2140,107,1914,2020,TRUE,"Continuous","WATER SURVEY OF CANADA (DOE) (CANADA)"
"02FE003",5,245,115,"Normal","Great Lakes",19,"MIDDLE MAITLAND RIVER NEAR LISTOWEL","ON",43.72723,-80.97267,73.4,68,1953,2020,TRUE,"Continuous","WATER SURVEY OF CANADA (DOE) (CANADA)"
"02FE005",34,225,106,"Normal","Great Lakes",19,"MAITLAND RIVER ABOVE WINGHAM","ON",43.91508,-81.26439,527,68,1953,2020,TRUE,"Continuous","WATER SURVEY OF CANADA (DOE) (CANADA)"
"02FE009",31,248,86,"Normal","Great Lakes",19,"SOUTH MAITLAND RIVER AT SUMMERHILL","ON",43.68436,-81.54117,371,54,1967,2020,FALSE,"Continuous","WATER SURVEY OF CANADA (DOE) (CANADA)"
"02FF002",42,246,77,"Normal","Great Lakes",19,"AUSABLE RIVER NEAR SPRINGBANK","ON",43.07192,-81.65975,865,76,1945,2020,TRUE,"Continuous","WATER SURVEY OF CANADA (DOE) (CANADA)"
"02FF004",19,243,103,"Normal","Great Lakes",19,"SOUTH PARKHILL CREEK NEAR PARKHILL","ON",43.16075,-81.73183,42.7,66,1955,2020,FALSE,"Continuous","WATER SURVEY OF CANADA (DOE) (CANADA)"
"02FF007",28,248,89,"Normal","Great Lakes",19,"BAYFIELD RIVER NEAR VARNA","ON",43.55125,-81.58953,460,55,1966,2020,FALSE,"Continuous","WATER SURVEY OF CANADA (DOE) (CANADA)"
"02FF008",33,240,92,"Normal","Great Lakes",19,"PARKHILL CREEK ABOVE PARKHILL RESERVOIR","ON",43.16413,-81.63151,113,48,1973,2020,FALSE,"Continuous","WATER SURVEY OF CANADA (DOE) (CANADA)"
"02FF009",64,227,74,"Normal","Great Lakes",19,"AUSABLE RIVER NEAR EXETER","ON",43.36197,-81.50944,114,37,1984,2020,TRUE,"Continuous","WATER SURVEY OF CANADA (DOE) (CANADA)"
"02GA003",73,199,93,"Normal","Great Lakes",19,"GRAND RIVER AT GALT","ON",43.35311,-80.31575,3520,108,1913,2020,TRUE,"Continuous","WATER SURVEY OF CANADA (DOE) (CANADA)"
"02GA010",116,188,61,"Normal","Great Lakes",19,"NITH RIVER NEAR CANNING","ON",43.18972,-80.45503,1030,86,1913,2020,FALSE,"Continuous","WATER SURVEY OF CANADA (DOE) (CANADA)"
"02GA014",57,216,92,"Normal","Great Lakes",19,"GRAND RIVER NEAR MARSVILLE","ON",43.86172,-80.27222,663,64,1947,2020,TRUE,"Continuous","WATER SURVEY OF CANADA (DOE) (CANADA)"
"02GA015",123,189,53,"Normal","Great Lakes",19,"SPEED RIVER BELOW GUELPH","ON",43.53372,-80.25222,568,71,1950,2020,TRUE,"Continuous","WATER SURVEY OF CANADA (DOE) (CANADA)"
"02GA018",91,204,70,"Normal","Great Lakes",19,"NITH RIVER AT NEW HAMBURG","ON",43.37722,-80.71081,544,70,1950,2020,FALSE,"Continuous","WATER SURVEY OF CANADA (DOE) (CANADA)"
"02GA023",21,244,100,"Normal","Great Lakes",19,"CANAGAGIGUE CREEK NEAR ELMIRA","ON",43.57992,-80.50919,114,65,1956,2020,TRUE,"Continuous","WATER SURVEY OF CANADA (DOE) (CANADA)"
"02GA028",59,197,109,"Normal","Great Lakes",19,"CONESTOGO RIVER AT GLEN ALLAN","ON",43.65483,-80.70217,571,62,1959,2020,TRUE,"Continuous","WATER SURVEY OF CANADA (DOE) (CANADA)"
"02GA029",111,205,49,"Normal","Great Lakes",19,"ERAMOSA RIVER ABOVE GUELPH","ON",43.54778,-80.18203,231,59,1962,2020,TRUE,"Continuous","WATER SURVEY OF CANADA (DOE) (CANADA)"
"02GA030",94,203,68,"Normal","Great Lakes",19,"ALDER CREEK NEAR NEW DUNDEE","ON",43.37229,-80.55109,47.4,56,1965,2020,TRUE,"Continuous","WATER SURVEY OF CANADA (DOE) (CANADA)"
"02GA031",160,187,18,"Normal","Great Lakes",19,"BLUE SPRINGS CREEK NEAR EDEN MILLS","ON",43.57614,-80.109,41.5,56,1965,2020,TRUE,"Continuous","WATER SURVEY OF CANADA (DOE) (CANADA)"
"02GA038",101,186,78,"Normal","Great Lakes",19,"NITH RIVER ABOVE NITHBURG","ON",43.48389,-80.835,326,49,1972,2020,FALSE,"Continuous","WATER SURVEY OF CANADA (DOE) (CANADA)"
"02GB001",104,191,70,"Normal","Great Lakes",19,"GRAND RIVER AT BRANTFORD","ON",43.13272,-80.26731,5200,85,1913,2020,TRUE,"Continuous","WATER SURVEY OF CANADA (DOE) (CANADA)"
"02GB007",81,237,47,"Normal","Great Lakes",19,"FAIRCHILD CREEK NEAR BRANTFORD","ON",43.14739,-80.15461,389,52,1964,2015,FALSE,"Continuous","WATER SURVEY OF CANADA (DOE) (CANADA)"
"02GB008",118,199,48,"Normal","Great Lakes",19,"WHITEMANS CREEK NEAR MOUNT VERNON","ON",43.12625,-80.38372,386,60,1961,2020,TRUE,"Continuous","WATER SURVEY OF CANADA (DOE) (CANADA)"
"02GB010",155,172,38,"Normal","Great Lakes",19,"MCKENZIE CREEK NEAR CALEDONIA","ON",43.03394,-79.94981,173,60,1961,2020,TRUE,"Continuous","WATER SURVEY OF CANADA (DOE) (CANADA)"
"02GC002",72,223,70,"Normal","Great Lakes",19,"KETTLE CREEK AT ST. THOMAS","ON",42.77769,-81.214,331,68,1945,2020,FALSE,"Continuous","WATER SURVEY OF CANADA (DOE) (CANADA)"
"02GC006",133,205,27,"Normal","Great Lakes",19,"BIG CREEK NEAR DELHI","ON",42.83772,-80.50989,370,66,1955,2020,TRUE,"Continuous","WATER SURVEY OF CANADA (DOE) (CANADA)"
"02GC007",143,199,23,"Normal","Great Lakes",19,"BIG CREEK NEAR WALSINGHAM","ON",42.68561,-80.53847,567,66,1955,2020,TRUE,"Continuous","WATER SURVEY OF CANADA (DOE) (CANADA)"
"02GC008",101,235,29,"Normal","Great Lakes",19,"LYNN RIVER AT SIMCOE","ON",42.82333,-80.28944,144,64,1957,2020,TRUE,"Continuous","WATER SURVEY OF CANADA (DOE) (CANADA)"
"02GC018",73,243,49,"Normal","Great Lakes",19,"CATFISH CREEK NEAR SPARTA","ON",42.74608,-81.05694,295,57,1964,2020,FALSE,"Continuous","WATER SURVEY OF CANADA (DOE) (CANADA)"
"02GC022",172,142,51,"Low","Great Lakes",19,"NANTICOKE CREEK AT NANTICOKE","ON",42.80992,-80.07617,177,51,1969,2020,TRUE,"Continuous","WATER SURVEY OF CANADA (DOE) (CANADA)"
"02GC026",137,199,29,"Normal","Great Lakes",19,"BIG OTTER CREEK NEAR CALTON","ON",42.71067,-80.84081,665,46,1975,2020,TRUE,"Continuous","WATER SURVEY OF CANADA (DOE) (CANADA)"
"02GC029",79,218,68,"Normal","Great Lakes",19,"KETTLE CREEK ABOVE ST. THOMAS","ON",42.83519,-81.13472,134,36,1985,2020,FALSE,"Continuous","WATER SURVEY OF CANADA (DOE) (CANADA)"
"02GD001",102,201,62,"Normal","Great Lakes",19,"THAMES RIVER NEAR EALING","ON",42.97356,-81.20858,1340,106,1915,2020,TRUE,"Continuous","WATER SURVEY OF CANADA (DOE) (CANADA)"
"02GD004",74,222,69,"Normal","Great Lakes",19,"MIDDLE THAMES RIVER AT THAMESFORD","ON",43.05911,-80.99486,306,83,1938,2020,FALSE,"Continuous","WATER SURVEY OF CANADA (DOE) (CANADA)"
"02GD005",67,214,84,"Normal","Great Lakes",19,"NORTH THAMES RIVER AT ST. MARYS","ON",43.25575,-81.14562,1080,83,1938,2020,TRUE,"Continuous","WATER SURVEY OF CANADA (DOE) (CANADA)"
"02GD014",28,257,80,"Normal","Great Lakes",19,"NORTH THAMES RIVER NEAR MITCHELL","ON",43.45042,-81.20678,315,68,1953,2020,TRUE,"Continuous","WATER SURVEY OF CANADA (DOE) (CANADA)"
"02GD015",70,218,77,"Normal","Great Lakes",19,"NORTH THAMES RIVER NEAR THORNDALE","ON",43.14931,-81.19214,1320,68,1953,2020,TRUE,"Continuous","WATER SURVEY OF CANADA (DOE) (CANADA)"
"02GD016",134,171,60,"Normal","Great Lakes",19,"THAMES RIVER AT INGERSOLL","ON",43.04128,-80.88617,510,64,1957,2020,TRUE,"Continuous","WATER SURVEY OF CANADA (DOE) (CANADA)"
"02GD018",96,194,75,"Normal","Great Lakes",19,"AVON RIVER BELOW STRATFORD","ON",43.34472,-81.11642,140,57,1964,2020,TRUE,"Continuous","WATER SURVEY OF CANADA (DOE) (CANADA)"
"02GD021",63,221,81,"Normal","Great Lakes",19,"THAMES RIVER AT INNERKIP","ON",43.21531,-80.69186,149,43,1978,2020,FALSE,"Continuous","WATER SURVEY OF CANADA (DOE) (CANADA)"
"02GE002",75,223,67,"Normal","Great Lakes",19,"THAMES RIVER AT BYRON","ON",42.9625,-81.33178,3080,92,1922,2020,TRUE,"Continuous","WATER SURVEY OF CANADA (DOE) (CANADA)"
"02GE003",104,205,56,"Normal","Great Lakes",19,"THAMES RIVER AT THAMESVILLE","ON",42.54486,-81.96727,4370,80,1938,2020,TRUE,"Continuous","WATER SURVEY OF CANADA (DOE) (CANADA)"
"02GG002",40,245,80,"Normal","Great Lakes",19,"SYDENHAM RIVER NEAR ALVINSTON","ON",42.83081,-81.85172,701,74,1947,2020,FALSE,"Continuous","WATER SURVEY OF CANADA (DOE) (CANADA)"
"02GG003",54,234,77,"Normal","Great Lakes",19,"SYDENHAM RIVER AT FLORENCE","ON",42.65061,-82.00839,1150,37,1984,2020,FALSE,"Continuous","WATER SURVEY OF CANADA (DOE) (CANADA)"
"02GG006",46,223,96,"Normal","Great Lakes",19,"BEAR CREEK NEAR PETROLIA","ON",42.90583,-82.11911,249,55,1966,2020,FALSE,"Continuous","WATER SURVEY OF CANADA (DOE) (CANADA)"
"02GG009",68,206,91,"Normal","Great Lakes",19,"BEAR CREEK BELOW BRIGDEN","ON",42.81203,-82.29842,536,39,1981,2019,FALSE,"Continuous","WATER SURVEY OF CANADA (DOE) (CANADA)"
"02GH002",78,215,72,"Normal","Great Lakes",19,"RUSCOM RIVER NEAR RUSCOM STATION","ON",42.2115,-82.62914,125,49,1971,2020,FALSE,"Continuous","WATER SURVEY OF CANADA (DOE) (CANADA)"
"02GH003",127,172,66,"Normal","Great Lakes",19,"CANARD RIVER NEAR LUKERVILLE","ON",42.15897,-83.01889,159,45,1976,2020,FALSE,"Continuous","WATER SURVEY OF CANADA (DOE) (CANADA)"
"02GH004",104,177,84,"Normal","Great Lakes",19,"TURKEY CREEK AT WINDSOR","ON",42.2605,-83.03983,29.6,30,1982,2011,FALSE,"Continuous","WATER SURVEY OF CANADA (DOE) (CANADA)"
"02HA003",335,28,2,"Low","Great Lakes",19,"NIAGARA RIVER AT QUEENSTON","ON",43.15694,-79.04722,686000,160,1860,2019,TRUE,"Continuous","INTERNATIONAL NIAGARA COMMITTEE"
"02HA006",116,189,60,"Normal","Great Lakes",19,"TWENTY MILE CREEK AT BALLS FALLS","ON",43.13347,-79.38325,292,63,1957,2019,FALSE,"Continuous","WATER SURVEY OF CANADA (DOE) (CANADA)"
"02HA007",126,170,69,"Normal","Great Lakes",19,"WELLAND RIVER BELOW CAISTOR CORNERS","ON",43.02178,-79.61802,223,63,1957,2019,TRUE,"Continuous","WATER SURVEY OF CANADA (DOE) (CANADA)"
"02HA019",56,293,16,"Normal","Great Lakes",19,"WELLAND CANAL DIVERSION FROM LAKE ERIE","ON",42.95,-79.21667,NA,35,1984,2018,TRUE,"Continuous","ST. LAWRENCE SEAWAY AUTHORITY"
"02HB001",93,226,46,"Normal","Great Lakes",19,"CREDIT RIVER NEAR CATARACT","ON",43.83586,-80.02289,209,106,1915,2020,TRUE,"Continuous","WATER SURVEY OF CANADA (DOE) (CANADA)"
"02HB004",122,199,44,"Normal","Great Lakes",19,"EAST SIXTEEN MILE CREEK NEAR OMAGH","ON",43.49917,-79.77678,193,65,1956,2020,FALSE,"Continuous","WATER SURVEY OF CANADA (DOE) (CANADA)"
"02HB007",110,215,40,"Normal","Great Lakes",19,"SPENCER CREEK AT DUNDAS","ON",43.26542,-79.96428,158,39,1959,2020,TRUE,"Continuous","WATER SURVEY OF CANADA (DOE) (CANADA)"
"02HB008",93,226,46,"Normal","Great Lakes",19,"CREDIT RIVER WEST BRANCH AT NORVAL","ON",43.64656,-79.86628,131,61,1960,2020,TRUE,"Continuous","WATER SURVEY OF CANADA (DOE) (CANADA)"
"02HB012",20,276,69,"Normal","Great Lakes",19,"GRINDSTONE CREEK NEAR ALDERSHOT","ON",43.30064,-79.869,77.9,56,1965,2020,FALSE,"Continuous","WATER SURVEY OF CANADA (DOE) (CANADA)"
"02HB013",69,239,57,"Normal","Great Lakes",19,"CREDIT RIVER NEAR ORANGEVILLE","ON",43.89127,-80.0624,60.6,54,1967,2020,TRUE,"Continuous","WATER SURVEY OF CANADA (DOE) (CANADA)"
"02HB018",109,206,50,"Normal","Great Lakes",19,"CREDIT RIVER AT BOSTON MILLS","ON",43.77358,-79.92683,415,39,1982,2020,TRUE,"Continuous","WATER SURVEY OF CANADA (DOE) (CANADA)"
"02HB020",213,117,35,"Low","Great Lakes",19,"CREDIT RIVER ERIN BRANCH ABOVE ERIN","ON",43.77181,-80.09364,32.3,38,1983,2020,TRUE,"Continuous","WATER SURVEY OF CANADA (DOE) (CANADA)"
"02HC003",132,168,65,"Normal","Great Lakes",19,"HUMBER RIVER AT WESTON","ON",43.69894,-79.52039,802,76,1945,2020,TRUE,"Continuous","WATER SURVEY OF CANADA (DOE) (CANADA)"
"02HC009",92,219,54,"Normal","Great Lakes",19,"EAST HUMBER RIVER NEAR PINE GROVE","ON",43.79008,-79.58442,191,68,1953,2020,FALSE,"Continuous","WATER SURVEY OF CANADA (DOE) (CANADA)"
"02HC018",122,178,65,"Normal","Great Lakes",19,"LYNDE CREEK NEAR WHITBY","ON",43.8755,-78.96033,100,59,1959,2019,FALSE,"Continuous","WATER SURVEY OF CANADA (DOE) (CANADA)"
"02HC019",152,168,45,"Normal","Great Lakes",19,"DUFFINS CREEK ABOVE PICKERING","ON",43.89128,-79.05928,93.5,58,1960,2019,FALSE,"Continuous","WATER SURVEY OF CANADA (DOE) (CANADA)"
"02HC022",118,175,72,"Normal","Great Lakes",19,"ROUGE RIVER NEAR MARKHAM","ON",43.85836,-79.23356,181,58,1961,2019,TRUE,"Continuous","WATER SURVEY OF CANADA (DOE) (CANADA)"
"02HC024",139,159,67,"Normal","Great Lakes",19,"DON RIVER AT TODMORDEN","ON",43.68586,-79.3615,319,58,1962,2019,TRUE,"Continuous","WATER SURVEY OF CANADA (DOE) (CANADA)"
"02HC025",104,215,46,"Normal","Great Lakes",19,"HUMBER RIVER AT ELDER MILLS","ON",43.81131,-79.62758,296,56,1962,2020,FALSE,"Continuous","WATER SURVEY OF CANADA (DOE) (CANADA)"
"02HC027",131,156,78,"Normal","Great Lakes",19,"BLACK CREEK NEAR WESTON","ON",43.67425,-79.50436,58,55,1966,2020,TRUE,"Continuous","WATER SURVEY OF CANADA (DOE) (CANADA)"
"02HC028",72,219,74,"Normal","Great Lakes",19,"LITTLE ROUGE CREEK NEAR LOCUST HILL","ON",43.90789,-79.21628,83.6,57,1963,2019,FALSE,"Continuous","WATER SURVEY OF CANADA (DOE) (CANADA)"
"02HC030",122,161,82,"Normal","Great Lakes",19,"ETOBICOKE CREEK BELOW QUEEN ELIZABETH HIGHWAY","ON",43.60175,-79.55633,205,55,1966,2020,FALSE,"Continuous","WATER SURVEY OF CANADA (DOE) (CANADA)"
"02HC031",77,225,63,"Normal","Great Lakes",19,"WEST HUMBER RIVER AT HIGHWAY NO. 7","ON",43.75836,-79.67894,142,51,1965,2019,FALSE,"Continuous","WATER SURVEY OF CANADA (DOE) (CANADA)"
"02HC033",145,155,65,"Normal","Great Lakes",19,"MIMICO CREEK AT ISLINGTON","ON",43.64736,-79.51969,67.8,55,1965,2019,FALSE,"Continuous","WATER SURVEY OF CANADA (DOE) (CANADA)"
"02HD003",173,155,37,"Low","Great Lakes",19,"GANARASKA RIVER NEAR OSACA","ON",44.01514,-78.43747,67.3,62,1958,2019,TRUE,"Seasonal","WATER SURVEY OF CANADA (DOE) (CANADA)"
"02HD003",173,155,37,"Low","Great Lakes",19,"GANARASKA RIVER NEAR OSACA","ON",44.01514,-78.43747,67.3,62,1958,2019,TRUE,"Continuous","WATER SURVEY OF CANADA (DOE) (CANADA)"
"02HD008",169,145,51,"Low","Great Lakes",19,"OSHAWA CREEK AT OSHAWA","ON",43.93031,-78.89153,95.8,61,1959,2019,FALSE,"Continuous","WATER SURVEY OF CANADA (DOE) (CANADA)"
"02HD010",190,144,31,"Low","Great Lakes",19,"SHELTER VALLEY BROOK NEAR GRAFTON","ON",43.99188,-78.00122,63.8,55,1965,2019,TRUE,"Continuous","WATER SURVEY OF CANADA (DOE) (CANADA)"
"02HD012",200,120,45,"Low","Great Lakes",19,"GANARASKA RIVER ABOVE DALE","ON",43.99094,-78.32819,242,44,1976,2019,FALSE,"Continuous","WATER SURVEY OF CANADA (DOE) (CANADA)"
"02HD013",159,147,59,"Low","Great Lakes",19,"HARMONY CREEK AT OSHAWA","ON",43.88886,-78.82494,42.9,33,1980,2012,FALSE,"Continuous","WATER SURVEY OF CANADA (DOE) (CANADA)"
"02HE002",129,164,19,"Normal","Great Lakes",19,"CONSECON CREEK AT ALLISONVILLE","ON",44.02747,-77.36694,119,52,1969,2020,TRUE,"Continuous","WATER SURVEY OF CANADA (DOE) (CANADA)"
"02HF002",137,201,27,"Normal","Great Lakes",19,"GULL RIVER AT NORLAND","ON",44.73183,-78.81806,1280,58,1962,2019,TRUE,"Continuous","WATER SURVEY OF CANADA (DOE) (CANADA)"
"02HF003",114,213,38,"Normal","Great Lakes",19,"BURNT RIVER NEAR BURNT RIVER","ON",44.70986,-78.67753,1250,58,1962,2019,TRUE,"Continuous","WATER SURVEY OF CANADA (DOE) (CANADA)"
"02HJ001",136,192,37,"Normal","Great Lakes",19,"JACKSON CREEK AT PETERBOROUGH","ON",44.30278,-78.32139,116,58,1962,2019,FALSE,"Continuous","WATER SURVEY OF CANADA (DOE) (CANADA)"
"02HK003",155,172,38,"Normal","Great Lakes",19,"CROWE RIVER AT MARMORA","ON",44.48157,-77.6848,1930,62,1959,2020,TRUE,"Continuous","WATER SURVEY OF CANADA (DOE) (CANADA)"
"02HK007",127,196,42,"Normal","Great Lakes",19,"COLD CREEK AT ORLAND","ON",44.13475,-77.78703,161,40,1981,2020,FALSE,"Continuous","WATER SURVEY OF CANADA (DOE) (CANADA)"
"02HL001",207,134,24,"Low","Great Lakes",19,"MOIRA RIVER NEAR FOXBORO","ON",44.25373,-77.41883,2590,106,1915,2020,TRUE,"Continuous","WATER SURVEY OF CANADA (DOE) (CANADA)"
"02HL003",209,130,26,"Low","Great Lakes",19,"BLACK RIVER NEAR ACTINOLITE","ON",44.5396,-77.36965,429,66,1955,2020,FALSE,"Continuous","WATER SURVEY OF CANADA (DOE) (CANADA)"
"02HL004",171,172,22,"Normal","Great Lakes",19,"SKOOTAMATTA RIVER NEAR ACTINOLITE","ON",44.54957,-77.32813,678,66,1955,2020,FALSE,"Continuous","WATER SURVEY OF CANADA (DOE) (CANADA)"
"02HL005",148,190,27,"Normal","Great Lakes",19,"MOIRA RIVER NEAR DELORO","ON",44.49973,-77.61836,297,56,1965,2020,FALSE,"Continuous","WATER SURVEY OF CANADA (DOE) (CANADA)"
"02HM002",186,168,11,"Low","Great Lakes",19,"DEPOT CREEK AT BELLROCK","ON",44.47192,-76.76236,181,64,1957,2020,TRUE,"Continuous","WATER SURVEY OF CANADA (DOE) (CANADA)"
"02HM003",198,150,17,"Low","Great Lakes",19,"SALMON RIVER NEAR SHANNONVILLE","ON",44.20741,-77.20938,907,63,1958,2020,TRUE,"Continuous","WATER SURVEY OF CANADA (DOE) (CANADA)"
"02HM004",200,147,18,"Low","Great Lakes",19,"WILTON CREEK NEAR NAPANEE","ON",44.23943,-76.84922,105,56,1965,2020,FALSE,"Continuous","WATER SURVEY OF CANADA (DOE) (CANADA)"
"02HM005",184,159,22,"Low","Great Lakes",19,"COLLINS CREEK NEAR KINGSTON","ON",44.25656,-76.61256,160,52,1969,2020,FALSE,"Continuous","WATER SURVEY OF CANADA (DOE) (CANADA)"
"02HM006",224,132,9,"Low","Great Lakes",19,"MILLHAVEN CREEK NEAR MILLHAVEN","ON",44.2264,-76.75909,144,53,1968,2020,TRUE,"Continuous","WATER SURVEY OF CANADA (DOE) (CANADA)"
"02HM007",200,162,3,"Low","Great Lakes",19,"NAPANEE RIVER AT CAMDEN EAST","ON",44.33468,-76.83889,700,47,1974,2020,TRUE,"Continuous","WATER SURVEY OF CANADA (DOE) (CANADA)"
"02JB009",136,225,4,"Normal","Ottawa",20,"OUTAOUAIS (RIVIERE DES) A LA SORTIE DU LAC GRANET","QC",47.8425,-77.54889,10300,44,1977,2020,TRUE,"Continuous","MINISTERE DE L'ENVIRONNEMENT DU QUEBEC"
"02JB013",193,90,82,"Low","Ottawa",20,"KINOJEVIS (RIVIERE) A 0,3 KM EN AMONT DU PONT-ROUTE A CLÉRICY","QC",48.36667,-78.85333,2590,56,1965,2020,FALSE,"Continuous","MINISTERE DE L'ENVIRONNEMENT DU QUEBEC"
"02JC008",107,143,115,"Normal","Ottawa",20,"BLANCHE RIVER ABOVE ENGLEHART","ON",47.88914,-79.87931,1780,52,1968,2019,FALSE,"Continuous","WATER SURVEY OF CANADA (DOE) (CANADA)"
"02KB001",144,149,72,"Normal","Ottawa",20,"PETAWAWA RIVER NEAR PETAWAWA","ON",45.88619,-77.31531,4120,106,1915,2020,TRUE,"Continuous","WATER SURVEY OF CANADA (DOE) (CANADA)"
"02KC009",217,148,0,"Low","Ottawa",20,"BONNECHERE RIVER NEAR CASTLEFORD","ON",45.49647,-76.56461,2380,99,1921,2019,TRUE,"Continuous","WATER SURVEY OF CANADA (DOE) (CANADA)"
"02KD004",172,187,6,"Normal","Ottawa",20,"MADAWASKA RIVER AT PALMER RAPIDS","ON",45.32808,-77.5155,5800,91,1930,2020,TRUE,"Continuous","WATER SURVEY OF CANADA (DOE) (CANADA)"
"02KF001",167,194,4,"Normal","Ottawa",20,"MISSISSIPPI RIVER AT FERGUSONS FALLS","ON",45.05328,-76.28608,2660,43,1915,2019,TRUE,"Continuous","WATER SURVEY OF CANADA (DOE) (CANADA)"
"02KF005",168,105,92,"Low","Ottawa",20,"OTTAWA RIVER AT BRITANNIA","ON",45.35125,-75.82666,90900,61,1960,2020,TRUE,"Continuous","WATER SURVEY OF CANADA (DOE) (CANADA)"
"02KF006",191,170,4,"Low","Ottawa",20,"MISSISSIPPI RIVER AT APPLETON","ON",45.17633,-76.12347,2940,103,1918,2020,TRUE,"Continuous","WATER SURVEY OF CANADA (DOE) (CANADA)"
"02KF010",139,208,18,"Normal","Ottawa",20,"CLYDE RIVER NEAR LANARK","ON",45.04583,-76.40089,618,51,1970,2020,TRUE,"Continuous","WATER SURVEY OF CANADA (DOE) (CANADA)"
"02KF011",100,224,41,"Normal","Ottawa",20,"CARP RIVER NEAR KINBURN","ON",45.41758,-76.19867,258,49,1971,2019,FALSE,"Continuous","WATER SURVEY OF CANADA (DOE) (CANADA)"
"02KF013",149,193,23,"Normal","Ottawa",20,"CLYDE RIVER AT GORDON RAPIDS","ON",45.134,-76.62994,291,49,1971,2019,TRUE,"Continuous","WATER SURVEY OF CANADA (DOE) (CANADA)"
"02KJ004",132,153,80,"Normal","Ottawa",20,"DUMOINE (RIVIERE) A LA SORTIE DU LAC ROBINSON","QC",46.34583,-77.81556,3760,56,1965,2020,TRUE,"Continuous","MINISTERE DE L'ENVIRONNEMENT DU QUEBEC"
"02LA004",214,132,19,"Low","Ottawa",20,"RIDEAU RIVER AT OTTAWA","ON",45.3815,-75.69697,3810,88,1933,2020,TRUE,"Continuous","WATER SURVEY OF CANADA (DOE) (CANADA)"
"02LA006",223,124,18,"Low","Ottawa",20,"KEMPTVILLE CREEK NEAR KEMPTVILLE","ON",44.99425,-75.66228,411,52,1969,2020,TRUE,"Continuous","WATER SURVEY OF CANADA (DOE) (CANADA)"
"02LA007",145,195,25,"Normal","Ottawa",20,"JOCK RIVER NEAR RICHMOND","ON",45.24942,-75.79061,526,52,1969,2020,FALSE,"Continuous","WATER SURVEY OF CANADA (DOE) (CANADA)"
"02LB005",181,161,23,"Low","Ottawa",20,"SOUTH NATION RIVER NEAR PLANTAGENET SPRINGS","ON",45.51706,-74.97822,3807,106,1915,2020,FALSE,"Continuous","WATER SURVEY OF CANADA (DOE) (CANADA)"
"02LB006",114,223,28,"Normal","Ottawa",20,"CASTOR RIVER AT RUSSELL","ON",45.2625,-75.34378,439,72,1948,2020,FALSE,"Continuous","WATER SURVEY OF CANADA (DOE) (CANADA)"
"02LB007",217,130,18,"Low","Ottawa",20,"SOUTH NATION RIVER AT SPENCERVILLE","ON",44.84225,-75.54442,246,73,1948,2020,FALSE,"Continuous","WATER SURVEY OF CANADA (DOE) (CANADA)"
"02LB008",124,191,25,"Normal","Ottawa",20,"BEAR BROOK NEAR BOURGET","ON",45.426,-75.15322,448,65,1949,2020,FALSE,"Continuous","WATER SURVEY OF CANADA (DOE) (CANADA)"
"02LC008",139,190,36,"Normal","Ottawa",20,"NORD (RIVIERE DU) A 4,8 KM EN AMONT DU PONT DU C.N. A SAINT-JEROME","QC",45.79306,-74.01278,1170,91,1930,2020,TRUE,"Continuous","MINISTERE DE L'ENVIRONNEMENT DU QUEBEC"
"02LC021",91,220,54,"Normal","Ottawa",20,"NORD (RIVIERE DU) PRES DE SAINT-AGATHE","QC",46.04583,-74.25278,311,50,1971,2020,TRUE,"Continuous","MINISTERE DE L'ENVIRONNEMENT DU QUEBEC"
"02LC029",101,204,60,"Normal","Ottawa",20,"ROUGE (RIVIERE) EN AMONT DE LA CHUTE MCNEIL","QC",45.73639,-74.68972,5460,57,1964,2020,TRUE,"Continuous","MINISTERE DE L'ENVIRONNEMENT DU QUEBEC"
"02LC043",84,202,79,"Normal","Ottawa",20,"SAINT-LOUIS (RUISSEAU) À 0,3 KM DE LA RIVIÈRE DU DIABLE","QC",46.37472,-74.50333,39.9,53,1968,2020,FALSE,"Continuous","MINISTERE DE L'ENVIRONNEMENT DU QUEBEC"
"02LD005",72,270,23,"Normal","Ottawa",20,"PETITE NATION (RIVIERE DE LA) AU PONT À 1,6 KM EN AMONT DE RIPON","QC",45.79167,-75.09139,1330,53,1968,2020,FALSE,"Continuous","MINISTERE DE L'ENVIRONNEMENT DU QUEBEC"
"02LE013",151,185,29,"Normal","Ottawa",20,"MITCHINAMECUS (RIVIERE) À LA TÊTE DE LA CHUTE RASCAS","QC",47.18444,-75.14361,1050,44,1977,2020,TRUE,"Continuous","MINISTERE DE L'ENVIRONNEMENT DU QUEBEC"
"02LE024",103,180,82,"Normal","Ottawa",20,"LIEVRE (RIVIERE DU) À 2,2 KM EN AMONT DU PONT-ROUTE 311 À LAC-SAINT-PAUL","QC",46.78417,-75.31389,4530,42,1979,2020,TRUE,"Continuous","MINISTERE DE L'ENVIRONNEMENT DU QUEBEC"
"02LG005",96,187,82,"Normal","Ottawa",20,"GATINEAU (RIVIERE) AUX RAPIDES CEIZUR","QC",47.08361,-75.75361,6840,47,1974,2020,FALSE,"Continuous","MINISTERE DE L'ENVIRONNEMENT DU QUEBEC"
"02MC001",206,139,20,"Low","St. Lawrence",21,"RAISIN RIVER NEAR WILLIAMSTOWN","ON",45.15547,-74.63814,404,61,1960,2020,FALSE,"Continuous","WATER SURVEY OF CANADA (DOE) (CANADA)"
"02MC026",235,108,22,"Low","St. Lawrence",21,"RIVIERE BEAUDETTE NEAR GLEN NEVIS","ON",45.27328,-74.49386,124,38,1983,2020,FALSE,"Continuous","WATER SURVEY OF CANADA (DOE) (CANADA)"
"02ND003",139,187,39,"Normal","St. Lawrence",21,"VERMILLON (RIVIERE) EN AVAL DE LA RIVIERE DES PRAIRIES","QC",47.67639,-73.04278,2640,39,1982,2020,TRUE,"Continuous","MINISTERE DE L'ENVIRONNEMENT DU QUEBEC"
"02NF003",123,188,54,"Normal","St. Lawrence",21,"MATAWIN (RIVIERE) A SAINT-MICHEL-DES-SAINTS","QC",46.68583,-73.91417,1390,90,1931,2020,FALSE,"Continuous","MINISTERE DE L'ENVIRONNEMENT DU QUEBEC"
"02OA003",179,115,71,"Low","St. Lawrence",21,"MILLE ILES (RIVIERE DES) A BOIS-DES-FILION","QC",45.66294,-73.75216,NA,108,1913,2020,TRUE,"Continuous","WATER SURVEY OF CANADA (DOE) (CANADA)"
"02OA016",340,24,1,"Low","St. Lawrence",21,"SAINT-LAURENT (FLEUVE) A LASALLE","QC",45.41501,-73.62316,NA,66,1955,2020,TRUE,"Continuous","WATER SURVEY OF CANADA (DOE) (CANADA)"
"02OA054",136,187,42,"Normal","St. Lawrence",21,"CHATEAUGUAY (RIVIERE) À 2 KM EN AMONT DU PONT-ROUTE 132","QC",45.33194,-73.76194,2490,51,1970,2020,TRUE,"Continuous","MINISTERE DE L'ENVIRONNEMENT DU QUEBEC"
"02OA057",129,187,48,"Normal","St. Lawrence",21,"ANGLAIS (RIVIERE DES) À 1,1 KM EN AVAL DU PONT-ROUTE À TRÈS-SAINT-SACREMENT","QC",45.175,-73.845,643,48,1973,2020,FALSE,"Continuous","MINISTERE DE L'ENVIRONNEMENT DU QUEBEC"
"02OB008",125,218,22,"Normal","St. Lawrence",21,"L'ASSOMPTION (RIVIERE) AU PONT-ROUTE 158 À JOLIETTE","QC",46.01028,-73.4275,1340,51,1970,2020,TRUE,"Continuous","MINISTERE DE L'ENVIRONNEMENT DU QUEBEC"
"02OB017",110,206,49,"Normal","St. Lawrence",21,"OUAREAU (RIVIERE) AUX CHUTES DORWIN","QC",46.03,-73.70528,1270,55,1966,2020,TRUE,"Continuous","MINISTERE DE L'ENVIRONNEMENT DU QUEBEC"
"02OB037",117,215,33,"Normal","St. Lawrence",21,"ACHIGAN (RIVIERE DE L') A L'EPIPHANIE","QC",45.84639,-73.49306,647,42,1979,2020,FALSE,"Continuous","MINISTERE DE L'ENVIRONNEMENT DU QUEBEC"
"02OC002",78,273,14,"Normal","St. Lawrence",21,"MASKINONGE (RIVIERE) AU PONT DU C.N. PRÈS DE SAINTE-URSULE","QC",46.30111,-73.09667,1030,90,1925,2020,TRUE,"Continuous","MINISTERE DE L'ENVIRONNEMENT DU QUEBEC"
"02OC004",143,207,15,"Normal","St. Lawrence",21,"LOUP (RIVIERE DU) À 0,3 KM EN AVAL DU RUISSEAU CARUFEL","QC",46.60056,-73.18639,774,56,1965,2020,TRUE,"Continuous","MINISTERE DE L'ENVIRONNEMENT DU QUEBEC"
"02OD001",155,163,47,"Normal","St. Lawrence",21,"NICOLET SUD-OUEST (RIVIERE) PRES D'ASBESTOS","QC",45.79167,-71.96917,549,92,1929,2020,TRUE,"Continuous","MINISTERE DE L'ENVIRONNEMENT DU QUEBEC"
"02OD010",111,202,52,"Normal","St. Lawrence",21,"BULSTRODE (RIVIERE) A SAINT-VALERE-1","QC",46.07,-71.97889,342,46,1975,2020,TRUE,"Continuous","MINISTERE DE L'ENVIRONNEMENT DU QUEBEC"
"02OE001",153,136,49,"Low","St. Lawrence",21,"SAINT-FRANCOIS (RIVIERE) À 0,6 KM EN AVAL DU BARRAGE JULES-ALLARD","QC",45.94083,-71.28111,1230,53,1968,2020,TRUE,"Continuous","MINISTERE DE L'ENVIRONNEMENT DU QUEBEC"
"02OE019",181,158,26,"Low","St. Lawrence",21,"MASSAWAPPI (RIVIERE) À 1,6 KM EN AVAL DU LAC MASSAWIPPI","QC",45.28417,-71.9625,610,69,1952,2020,TRUE,"Continuous","MINISTERE DE L'ENVIRONNEMENT DU QUEBEC"
"02OE022",169,155,41,"Low","St. Lawrence",21,"COATICOOK (RIVIERE) À 1,3 KM EN AVAL DU PONT-ROUTE 143 À WATERVILLE","QC",45.285,-71.89944,521,62,1959,2020,TRUE,"Continuous","MINISTERE DE L'ENVIRONNEMENT DU QUEBEC"
"02OE027",154,172,39,"Normal","St. Lawrence",21,"EATON (RIVIERE) PRES DE LA RIVIERE SAINT-FRANCOIS-3","QC",45.46722,-71.65528,642,68,1953,2020,FALSE,"Continuous","MINISTERE DE L'ENVIRONNEMENT DU QUEBEC"
"02OE032",127,193,45,"Normal","St. Lawrence",21,"SAUMON (RIVIERE AU) À 1,9 KM EN AMONT DE LA MOFFAT","QC",45.58056,-71.38667,738,47,1974,2020,FALSE,"Continuous","MINISTERE DE L'ENVIRONNEMENT DU QUEBEC"
"02OE062",174,164,27,"Low","St. Lawrence",21,"SAINT-FRANCOIS (RIVIERE) À 0,5 KM EN AVAL DE LA CENTRALE WEEDON","QC",45.65861,-71.46861,2930,42,1979,2020,TRUE,"Continuous","MINISTERE DE L'ENVIRONNEMENT DU QUEBEC"
"02OG002",146,183,36,"Normal","St. Lawrence",21,"YAMASKA (RIVIERE) À FARNHAM","QC",45.2825,-72.96583,1230,83,1929,2020,TRUE,"Continuous","MINISTERE DE L'ENVIRONNEMENT DU QUEBEC"
"02OG007",240,116,9,"Low","St. Lawrence",21,"YAMASKA NORD (RIVIERE) A VAL-SHEFFORD","QC",45.41583,-72.62222,139,52,1968,2020,FALSE,"Continuous","MINISTERE DE L'ENVIRONNEMENT DU QUEBEC"
"02OG019",154,177,34,"Normal","St. Lawrence",21,"NOIRE (RIVIERE) À 7,6 KM DE LA YAMASKA","QC",45.49972,-72.90639,1490,56,1965,2020,TRUE,"Continuous","MINISTERE DE L'ENVIRONNEMENT DU QUEBEC"
"02OG026",113,213,39,"Normal","St. Lawrence",21,"DAVID (RIVIERE) AU PONT-ROUTE À SAINT-DAVID","QC",45.95361,-72.85944,316,52,1969,2020,FALSE,"Continuous","MINISTERE DE L'ENVIRONNEMENT DU QUEBEC"
"02OG042",200,140,25,"Low","St. Lawrence",21,"YAMASKA NORD (RIVIERE) À 2,4 KM EN AMONT DE L'AUTOROUTE 10","QC",45.36444,-72.78444,235,38,1983,2020,TRUE,"Continuous","MINISTERE DE L'ENVIRONNEMENT DU QUEBEC"
"02OH008",159,164,37,"Normal","St. Lawrence",21,"BROCHETS (RIVIERE AUX) À 0,7 KM EN AVAL DU RUISSEAU GROAT","QC",45.1225,-72.99444,404,31,1979,2012,FALSE,"Continuous","MINISTERE DE L'ENVIRONNEMENT DU QUEBEC"
"02OJ007",201,135,29,"Low","St. Lawrence",21,"RICHELIEU (RIVIERE) AUX RAPIDES FRYERS","QC",45.39847,-73.25844,22000,84,1937,2020,FALSE,"Continuous","WATER SURVEY OF CANADA (DOE) (CANADA)"
"02OJ024",134,188,43,"Normal","St. Lawrence",21,"HURONS (RIVIERE DES) EN AVAL DU RUISSEAU SAINT-LOUIS-2","QC",45.49028,-73.18694,309,48,1973,2020,FALSE,"Continuous","MINISTERE DE L'ENVIRONNEMENT DU QUEBEC"
"02OJ026",148,167,50,"Normal","St. Lawrence",21,"L'ACADIE (RIVIERE) PRES DE L'AUTOROUTE NO. 10","QC",45.38972,-73.37083,345,42,1979,2020,FALSE,"Continuous","MINISTERE DE L'ENVIRONNEMENT DU QUEBEC"
"02PA007",75,258,32,"Normal","St. Lawrence",21,"BATISCAN (RIVIERE) À 3,4 KM EN AVAL DE LA RIVIÈRE DES ENVIES","QC",46.58361,-72.40472,4480,54,1967,2020,FALSE,"Continuous","MINISTERE DE L'ENVIRONNEMENT DU QUEBEC"
"02PB006",78,221,66,"Normal","St. Lawrence",21,"SAINTE-ANNE (RIVIERE) (BRAS DU NORD DE LA) EN AMONT","QC",46.97167,-71.85444,642,56,1965,2020,FALSE,"Continuous","MINISTERE DE L'ENVIRONNEMENT DU QUEBEC"
"02PB019",98,208,59,"Normal","St. Lawrence",21,"SAINTE-ANNE (RIVIERE) À 1,3 KM EN AVAL DU BARRAGE À CHUTE-PANET","QC",46.85278,-71.8775,1550,56,1965,2020,TRUE,"Continuous","MINISTERE DE L'ENVIRONNEMENT DU QUEBEC"
"02PC002",145,171,49,"Normal","St. Lawrence",21,"JACQUES-CARTIER (RIVIERE) EN AVAL DU PONT DU CHEMIN GOSFORD","QC",46.88972,-71.52722,2010,92,1923,2020,TRUE,"Continuous","MINISTERE DE L'ENVIRONNEMENT DU QUEBEC"
"02PC010",91,229,45,"Normal","St. Lawrence",21,"ONTARITZI (RIVIÈRE) À 0,2 KM EN AVAL DU BARRAGE DU LAC SAINT-JOSEPH","QC",46.8675,-71.63944,213,45,1976,2020,TRUE,"Continuous","MINISTERE DE L'ENVIRONNEMENT DU QUEBEC"
"02PD002",79,220,66,"Normal","St. Lawrence",21,"MONTMORENCY (RIVIERE) À 0,6 KM EN AVAL DU BARRAGE DES MARCHES NATURELLES","QC",46.89417,-71.15139,1100,73,1924,2020,FALSE,"Continuous","MINISTERE DE L'ENVIRONNEMENT DU QUEBEC"
"02PD010",105,228,32,"Normal","St. Lawrence",21,"SAINT-CHARLES (RIVIERE) À 0,8 KM  EN AMONT DE LA RIVIERE LORETTE","QC",46.81417,-71.3175,357,52,1969,2020,TRUE,"Continuous","MINISTERE DE L'ENVIRONNEMENT DU QUEBEC"
"02PD012",80,218,45,"Normal","St. Lawrence",21,"EAUX VOLEES (RUISSEAU DES) EN AMONT DU CHEMIN DU BELVÉDÈRE","QC",47.27167,-71.16139,3.94,56,1965,2020,FALSE,"Continuous","MINISTERE DE L'ENVIRONNEMENT DU QUEBEC"
"02PD013",96,203,43,"Normal","St. Lawrence",21,"EAUX VOLEES (RUISSEAU DES) PRES DE LA RIVIERE MONTMORENCY","QC",47.27083,-71.13778,9.17,54,1967,2020,FALSE,"Continuous","MINISTERE DE L'ENVIRONNEMENT DU QUEBEC"
"02PE014",115,214,36,"Normal","St. Lawrence",21,"DAUPHINE (RIVIERE) À L' ÎLE D'ORLÉANS","QC",46.96667,-70.85639,24.9,51,1970,2020,FALSE,"Continuous","MINISTERE DE L'ENVIRONNEMENT DU QUEBEC"
"02PF001",155,179,31,"Normal","St. Lawrence",21,"MALBAIE (RIVIERE) A CLERMONT","QC",47.69417,-70.21694,1700,54,1967,2020,TRUE,"Continuous","MINISTERE DE L'ENVIRONNEMENT DU QUEBEC"
"02PG003",112,214,39,"Normal","St. Lawrence",21,"FOURCHUE (RIVIERE) À 0,2 KM EN AVAL DU BARRAGE MORIN","QC",47.65083,-69.51278,261,75,1943,2020,TRUE,"Continuous","MINISTERE DE L'ENVIRONNEMENT DU QUEBEC"
"02PG006",123,197,45,"Normal","St. Lawrence",21,"LOUP (RIVIERE DU) A SAINT-JOSEPH-DE-KAMOURASKA","QC",47.6125,-69.64583,525,43,1978,2020,FALSE,"Continuous","MINISTERE DE L'ENVIRONNEMENT DU QUEBEC"
"02PG022",88,217,60,"Normal","St. Lawrence",21,"OUELLE (RIVIERE) PRES DE SAINT-GABRIEL-DE-KAMOURASKA","QC",47.38111,-69.95806,795,39,1982,2020,FALSE,"Continuous","MINISTERE DE L'ENVIRONNEMENT DU QUEBEC"
"02PH010",107,202,55,"Normal","St. Lawrence",21,"DU SUD (RIVIÈRE) À 1,0 KM EN AMONT DU PONT-ROUTE À ARTHURVILLE","QC",46.82056,-70.75694,821,55,1966,2020,TRUE,"Continuous","MINISTERE DE L'ENVIRONNEMENT DU QUEBEC"
"02PH011",114,201,50,"Normal","St. Lawrence",21,"ETCHEMIN (RIVIERE) AU PONT-ROUTE 173 À SAINT-HENRI-DE-LÉVIS","QC",46.69111,-71.06889,1160,41,1980,2020,TRUE,"Continuous","MINISTERE DE L'ENVIRONNEMENT DU QUEBEC"
"02PJ030",127,173,65,"Normal","St. Lawrence",21,"FAMINE (RIVIERE) A SAINT-GEORGES","QC",46.16417,-70.63972,691,57,1964,2020,FALSE,"Continuous","MINISTERE DE L'ENVIRONNEMENT DU QUEBEC"
"02PL005",126,199,40,"Normal","St. Lawrence",21,"BECANCOUR (RIVIERE) À 2,1 KM EN AMONT DE LA RIVIÈRE PALMER","QC",46.30611,-71.45139,919,55,1966,2020,FALSE,"Continuous","MINISTERE DE L'ENVIRONNEMENT DU QUEBEC"
"02QA002",93,232,40,"Normal","North Shore - Gaspe",22,"RIMOUSKI (RIVIERE) À 3,7 KM EN AMONT DU PONT-ROUTE 132","QC",48.41333,-68.55611,1610,52,1962,2013,FALSE,"Continuous","MINISTERE DE L'ENVIRONNEMENT DU QUEBEC"
"02QB001",103,232,30,"Normal","North Shore - Gaspe",22,"MATANE (RIVIERE) À 8,5 KM EN AMONT DU PONT-ROUTE 132 À MATANE","QC",48.77472,-67.54194,1650,95,1926,2020,TRUE,"Continuous","MINISTERE DE L'ENVIRONNEMENT DU QUEBEC"
"02QB005",78,247,40,"Normal","North Shore - Gaspe",22,"BLANCHE (RIVIERE) À 3,5 KM EN AMONT DU PONT-ROUTE 132","QC",48.76667,-67.66611,208,54,1967,2020,TRUE,"Continuous","MINISTERE DE L'ENVIRONNEMENT DU QUEBEC"
"02QC009",83,239,43,"Normal","North Shore - Gaspe",22,"SAINTE-ANNE (RIVIERE) À 9,7 KM EN AMONT DU PONT-ROUTE 132","QC",49.05889,-66.48667,774,48,1973,2020,FALSE,"Continuous","MINISTERE DE L'ENVIRONNEMENT DU QUEBEC"
"02RB004",23,228,111,"Normal","North Shore - Gaspe",22,"MANOUANE (RIVIERE) A LA SORTIE DU LAC DUHAMEL","QC",49.88139,-70.92778,3686,31,1979,2013,FALSE,"Continuous","MINISTERE DE L'ENVIRONNEMENT DU QUEBEC"
"02RC011",57,185,123,"Normal","North Shore - Gaspe",22,"PERIBONCA (PETITE RIVIERE)","QC",48.81417,-72.04778,1090,47,1974,2020,FALSE,"Continuous","MINISTERE DE L'ENVIRONNEMENT DU QUEBEC"
"02RD003",24,240,101,"Normal","North Shore - Gaspe",22,"MISTASSINI (RIVIERE) EN AMONT DE LA RIVIERE MISTASSIBI","QC",48.88778,-72.26361,9870,66,1953,2020,FALSE,"Continuous","MINISTERE DE L'ENVIRONNEMENT DU QUEBEC"
"02RF001",42,204,119,"Normal","North Shore - Gaspe",22,"ASHUAPMUSHUAN (RIVIERE) À LA TÊTE DE LA CHUTE AUX SAUMONS","QC",48.68639,-72.48806,15300,68,1953,2020,FALSE,"Continuous","MINISTERE DE L'ENVIRONNEMENT DU QUEBEC"
"02RF002",41,206,114,"Normal","North Shore - Gaspe",22,"ASHUAPMUSHUAN (RIVIERE) EN AVAL DE LA RIVIERE DU CHEF","QC",49.27639,-73.35667,11100,46,1962,2007,FALSE,"Continuous","MINISTERE DE L'ENVIRONNEMENT DU QUEBEC"
"02RG005",66,235,64,"Normal","North Shore - Gaspe",22,"METABETCHOUANE (RIVIERE) EN AMONT DE LA CENTRALE S.R.P.C.","QC",48.375,-71.99361,2280,52,1964,2020,FALSE,"Continuous","MINISTERE DE L'ENVIRONNEMENT DU QUEBEC"
"02RG008",55,242,68,"Normal","North Shore - Gaspe",22,"OUIATCHOUANE (RIVIERE) EN AVAL DU BARRAGE DE LAC DES COMMISSAIRES","QC",48.20611,-72.23889,562,54,1966,2019,TRUE,"Continuous","MINISTERE DE L'ENVIRONNEMENT DU QUEBEC"
"02RH015",79,232,54,"Normal","North Shore - Gaspe",22,"CHICOUTIMI (RIVIERE) EN AVAL DU BARRAGE PORTAGE DES ROCHES","QC",48.30417,-71.19444,3390,111,1910,2020,TRUE,"Continuous","MINISTERE DE L'ENVIRONNEMENT DU QUEBEC"
"02RH027",106,196,63,"Normal","North Shore - Gaspe",22,"PIKAUBA (RIVIERE) EN AMONT DE LA RIVIERE APICA","QC",47.94111,-71.38194,495,52,1969,2020,FALSE,"Continuous","MINISTERE DE L'ENVIRONNEMENT DU QUEBEC"
"02RH035",79,211,75,"Normal","North Shore - Gaspe",22,"ÉCORCES (RIVIERE AUX) EN AMONT DU PONT-ROUTE 169","QC",48.18222,-71.64528,1110,50,1971,2020,FALSE,"Continuous","MINISTERE DE L'ENVIRONNEMENT DU QUEBEC"
"02RH045",90,177,98,"Normal","North Shore - Gaspe",22,"VALIN (RIVIERE) À 3,5 KM DE L'EMBOUCHURE","QC",48.48889,-70.97417,746,47,1974,2020,FALSE,"Continuous","MINISTERE DE L'ENVIRONNEMENT DU QUEBEC"
"02UA003",62,254,49,"Normal","North Shore - Gaspe",22,"GODBOUT (RIVIERE) À 1,6 KM EN AMONT DU PONT-ROUTE 138","QC",49.33056,-67.65583,1570,47,1974,2020,FALSE,"Continuous","MINISTERE DE L'ENVIRONNEMENT DU QUEBEC"
"02UC002",99,201,65,"Normal","North Shore - Gaspe",22,"MOISIE (RIVIERE) À 5,1 KM EN AMONT DU PONT DU Q.N.S.L.R.","QC",50.35028,-66.19028,19000,56,1965,2020,FALSE,"Continuous","MINISTERE DE L'ENVIRONNEMENT DU QUEBEC"
"02VC001",72,211,82,"Normal","North Shore - Gaspe",22,"ROMAINE (RIVIERE) AU PONT DE LA Q.I.T.","QC",50.30778,-63.6225,13000,59,1956,2014,FALSE,"Continuous","MINISTERE DE L'ENVIRONNEMENT DU QUEBEC"
"02WB003",94,242,29,"Normal","North Shore - Gaspe",22,"NATASHQUAN (RIVIERE) À 0,6 KM EN AVAL DE LA DÉCHARGE DU LAC ALIESTE","QC",50.42722,-61.71361,15600,41,1980,2020,FALSE,"Continuous","MINISTERE DE L'ENVIRONNEMENT DU QUEBEC"
"02XA003",168,129,68,"Low","North Shore - Gaspe",22,"LITTLE MECATINA RIVER ABOVE LAC FOURMONT","NL",52.22981,-61.31694,4540,43,1978,2020,FALSE,"Continuous","WATER SURVEY OF CANADA (DOE) (CANADA)"
"02XC001",15,217,62,"Normal","North Shore - Gaspe",22,"SAINT-PAUL (RIVIERE) À 0,5 KM DU RUISSEAU CHANION","QC",51.7725,-57.6,6630,54,1967,2020,FALSE,"Continuous","MINISTERE DE L'ENVIRONNEMENT DU QUEBEC"
"02YA002",68,259,38,"Normal","Newfoundland - Labrador",25,"BARTLETTS RIVER NEAR ST. ANTHONY","NL",51.44922,-55.64125,33.6,35,1986,2020,FALSE,"Continuous","WATER SURVEY OF CANADA (DOE) (CANADA)"
"02YC001",94,223,48,"Normal","Newfoundland - Labrador",25,"TORRENT RIVER AT BRISTOL'S POOL","NL",50.60747,-57.15161,624,62,1959,2020,FALSE,"Continuous","WATER SURVEY OF CANADA (DOE) (CANADA)"
"02YD002",72,206,87,"Normal","Newfoundland - Labrador",25,"NORTHEAST BROOK NEAR RODDICKTON","NL",50.92442,-56.11169,200,41,1980,2020,FALSE,"Continuous","WATER SURVEY OF CANADA (DOE) (CANADA)"
"02YE001",104,208,53,"Normal","Newfoundland - Labrador",25,"GREAVETT BROOK ABOVE PORTLAND CREEK POND","NL",50.16231,-57.57753,95.7,36,1984,2019,FALSE,"Continuous","WATER SURVEY OF CANADA (DOE) (CANADA)"
"02YG001",99,229,37,"Normal","Newfoundland - Labrador",25,"MAIN RIVER AT PARADISE POOL","NL",49.81067,-57.15942,627,34,1986,2019,FALSE,"Continuous","WATER SURVEY OF CANADA (DOE) (CANADA)"
"02YJ001",129,203,33,"Normal","Newfoundland - Labrador",25,"HARRYS RIVER BELOW HIGHWAY BRIDGE","NL",48.57583,-58.36264,640,52,1968,2019,FALSE,"Continuous","WATER SURVEY OF CANADA (DOE) (CANADA)"
"02YK001",62,227,76,"Normal","Newfoundland - Labrador",25,"HUMBER RIVER AT GRAND LAKE OUTLET","NL",49.16194,-57.42444,5020,86,1925,2010,TRUE,"Continuous","DEER LAKE POWER COMPANY LTD."
"02YK002",145,186,34,"Normal","Newfoundland - Labrador",25,"LEWASEECHJEECH BROOK AT LITTLE GRAND LAKE","NL",48.62203,-57.93311,470,64,1952,2019,FALSE,"Continuous","WATER SURVEY OF CANADA (DOE) (CANADA)"
"02YK005",74,245,46,"Normal","Newfoundland - Labrador",25,"SHEFFIELD BROOK NEAR TRANS CANADA HIGHWAY","NL",49.33828,-56.66789,391,49,1972,2020,FALSE,"Continuous","WATER SURVEY OF CANADA (DOE) (CANADA)"
"02YK006",53,258,54,"Normal","Newfoundland - Labrador",25,"HINDS BROOK AT HINDS BROOK POWER HOUSE","NL",49.08333,-57.20361,651,30,1981,2010,TRUE,"Continuous","NEWFOUNDLAND AND LABRADOR HYDRO"
"02YK008",65,236,64,"Normal","Newfoundland - Labrador",25,"BOOT BROOK AT TRANS-CANADA HIGHWAY","NL",49.26667,-57.104,20.4,35,1985,2019,FALSE,"Continuous","WATER SURVEY OF CANADA (DOE) (CANADA)"
"02YL001",76,261,28,"Normal","Newfoundland - Labrador",25,"UPPER HUMBER RIVER NEAR REIDVILLE","NL",49.24292,-57.36025,2110,93,1928,2020,FALSE,"Continuous","WATER SURVEY OF CANADA (DOE) (CANADA)"
"02YL002",86,242,37,"Normal","Newfoundland - Labrador",25,"CORNER BROOK AT WATSONS BROOK POWERHOUSE","NL",48.92389,-57.90306,127,52,1959,2010,TRUE,"Continuous","DEER LAKE POWER COMPANY LTD."
"02YL003",73,279,13,"Normal","Newfoundland - Labrador",25,"HUMBER RIVER AT HUMBER VILLAGE BRIDGE","NL",48.98286,-57.76058,7860,38,1982,2019,TRUE,"Continuous","WATER SURVEY OF CANADA (DOE) (CANADA)"
"02YL004",147,187,31,"Normal","Newfoundland - Labrador",25,"SOUTH BROOK AT PASADENA","NL",49.01228,-57.61142,58.5,37,1983,2019,FALSE,"Continuous","WATER SURVEY OF CANADA (DOE) (CANADA)"
"02YL005",87,214,64,"Normal","Newfoundland - Labrador",25,"RATTLER BROOK NEAR MCIVERS","NL",49.05831,-58.10519,17,35,1985,2019,FALSE,"Continuous","WATER SURVEY OF CANADA (DOE) (CANADA)"
"02YM003",66,239,60,"Normal","Newfoundland - Labrador",25,"SOUTH WEST BROOK NEAR BAIE VERTE","NL",49.89353,-56.22214,93.2,41,1980,2020,FALSE,"Continuous","WATER SURVEY OF CANADA (DOE) (CANADA)"
"02YN002",201,139,25,"Low","Newfoundland - Labrador",25,"LLOYDS RIVER BELOW KING GEORGE IV LAKE","NL",48.23981,-57.82814,469,40,1981,2020,FALSE,"Continuous","WATER SURVEY OF CANADA (DOE) (CANADA)"
"02YO001",34,262,69,"Normal","Newfoundland - Labrador",25,"EXPLOITS RIVER AT GRAND FALLS","NL",48.93056,-55.66861,8390,67,1944,2010,TRUE,"Continuous","ABITIBI CONSOLIDATED"
"02YO003",144,198,23,"Normal","Newfoundland - Labrador",25,"RATTLING BROOK AT RATTLING BROOK POWERHOUSE","NL",49.05333,-55.28667,378,49,1962,2010,TRUE,"Continuous","NEWFOUNDLAND LIGHT AND POWER COMPANY LIMITED"
"02YO004",129,205,31,"Normal","Newfoundland - Labrador",25,"SANDY BROOK AT SANDY BROOK POWERHOUSE","NL",48.88833,-55.82056,508,47,1964,2010,TRUE,"Continuous","NEWFOUNDLAND LIGHT AND POWER COMPANY LIMITED"
"02YO006",159,169,37,"Normal","Newfoundland - Labrador",25,"PETERS RIVER NEAR BOTWOOD","NL",49.10383,-55.39669,177,40,1981,2020,FALSE,"Continuous","WATER SURVEY OF CANADA (DOE) (CANADA)"
"02YO008",158,166,41,"Normal","Newfoundland - Labrador",25,"GREAT RATTLING BROOK ABOVE TOTE RIVER CONFLUENCE","NL",48.82667,-55.52869,773,37,1984,2020,FALSE,"Continuous","WATER SURVEY OF CANADA (DOE) (CANADA)"
"02YO011",82,222,35,"Normal","Newfoundland - Labrador",25,"EXPLOITS RIVER BELOW NOEL PAULS BROOK","NL",48.84439,-56.26967,6300,35,1985,2019,TRUE,"Continuous","WATER SURVEY OF CANADA (DOE) (CANADA)"
"02YQ001",136,189,40,"Normal","Newfoundland - Labrador",25,"GANDER RIVER AT BIG CHUTE","NL",49.01628,-54.85067,4450,72,1949,2020,FALSE,"Continuous","WATER SURVEY OF CANADA (DOE) (CANADA)"
"02YR001",123,194,48,"Normal","Newfoundland - Labrador",25,"MIDDLE BROOK NEAR GAMBO","NL",48.80739,-54.22256,275,62,1959,2020,FALSE,"Continuous","WATER SURVEY OF CANADA (DOE) (CANADA)"
"02YR003",71,252,42,"Normal","Newfoundland - Labrador",25,"INDIAN BAY BROOK NEAR NORTHWEST ARM","NL",49.04217,-53.88567,554,40,1981,2020,FALSE,"Continuous","WATER SURVEY OF CANADA (DOE) (CANADA)"
"02YS003",116,173,76,"Normal","Newfoundland - Labrador",25,"SOUTHWEST BROOK AT TERRA NOVA NATIONAL PARK","NL",48.60772,-53.97889,36.7,53,1967,2019,FALSE,"Continuous","WATER SURVEY OF CANADA (DOE) (CANADA)"
"02YS005",116,194,55,"Normal","Newfoundland - Labrador",25,"TERRA NOVA RIVER AT GLOVERTOWN","NL",48.66275,-54.01525,2000,36,1985,2020,FALSE,"Continuous","WATER SURVEY OF CANADA (DOE) (CANADA)"
"02ZA002",152,156,57,"Normal","Newfoundland - Labrador",25,"HIGHLANDS RIVER AT TRANS-CANADA HIGHWAY","NL",48.10839,-58.78358,72,38,1982,2019,FALSE,"Continuous","WATER SURVEY OF CANADA (DOE) (CANADA)"
"02ZB001",161,160,44,"Low","Newfoundland - Labrador",25,"ISLE AUX MORTS RIVER BELOW HIGHWAY BRIDGE","NL",47.61333,-59.00978,205,58,1962,2019,FALSE,"Continuous","WATER SURVEY OF CANADA (DOE) (CANADA)"
"02ZC002",121,188,56,"Normal","Newfoundland - Labrador",25,"GRANDY BROOK BELOW TOP POND BROOK","NL",47.85608,-57.73319,230,38,1982,2019,FALSE,"Continuous","WATER SURVEY OF CANADA (DOE) (CANADA)"
"02ZD002",118,190,57,"Normal","Newfoundland - Labrador",25,"GREY RIVER NEAR GREY RIVER","NL",47.74331,-56.934,1340,48,1969,2019,FALSE,"Continuous","WATER SURVEY OF CANADA (DOE) (CANADA)"
"02ZE003",130,199,36,"Normal","Newfoundland - Labrador",25,"SALMON RIVER AT BAY D'ESPOIR POWERHOUSE","NL",47.98333,-55.85333,5910,44,1967,2010,TRUE,"Continuous","NEWFOUNDLAND AND LABRADOR HYDRO"
"02ZF001",110,181,74,"Normal","Newfoundland - Labrador",25,"BAY DU NORD RIVER AT BIG FALLS","NL",47.74683,-55.44022,1170,71,1950,2020,FALSE,"Continuous","WATER SURVEY OF CANADA (DOE) (CANADA)"
"02ZG001",134,147,84,"Normal","Newfoundland - Labrador",25,"GARNISH RIVER NEAR GARNISH","NL",47.21642,-55.33,205,63,1958,2020,FALSE,"Continuous","WATER SURVEY OF CANADA (DOE) (CANADA)"
"02ZG003",107,193,65,"Normal","Newfoundland - Labrador",25,"SALMONIER RIVER NEAR LAMALINE","NL",46.87781,-55.77619,115,41,1980,2020,FALSE,"Continuous","WATER SURVEY OF CANADA (DOE) (CANADA)"
"02ZG004",119,168,78,"Normal","Newfoundland - Labrador",25,"RATTLE BROOK NEAR BOAT HARBOUR","NL",47.45003,-54.85303,42.7,40,1981,2020,FALSE,"Continuous","WATER SURVEY OF CANADA (DOE) (CANADA)"
"02ZH001",151,127,87,"Low","Newfoundland - Labrador",25,"PIPERS HOLE RIVER AT MOTHERS BROOK","NL",47.94667,-54.28433,764,69,1952,2020,FALSE,"Continuous","WATER SURVEY OF CANADA (DOE) (CANADA)"
"02ZH002",158,126,81,"Low","Newfoundland - Labrador",25,"COME BY CHANCE RIVER NEAR GOOBIES","NL",47.91875,-53.94867,43.3,52,1961,2019,FALSE,"Continuous","WATER SURVEY OF CANADA (DOE) (CANADA)"
"02ZJ001",117,148,100,"Normal","Newfoundland - Labrador",25,"SOUTHERN BAY RIVER NEAR SOUTHERN BAY","NL",48.38067,-53.67394,67.4,44,1976,2019,FALSE,"Continuous","WATER SURVEY OF CANADA (DOE) (CANADA)"
"02ZJ002",100,157,108,"Normal","Newfoundland - Labrador",25,"SALMON COVE RIVER NEAR CHAMPNEYS","NL",48.39592,-53.30161,73.6,37,1983,2019,FALSE,"Continuous","WATER SURVEY OF CANADA (DOE) (CANADA)"
"02ZJ003",152,117,96,"Low","Newfoundland - Labrador",25,"SHOAL HARBOUR RIVER NEAR CLARENVILLE","NL",48.22017,-54.04964,106,34,1986,2019,FALSE,"Continuous","WATER SURVEY OF CANADA (DOE) (CANADA)"
"02ZK001",106,176,83,"Normal","Newfoundland - Labrador",25,"ROCKY RIVER NEAR COLINET","NL",47.22711,-53.56861,301,73,1948,2020,FALSE,"Continuous","WATER SURVEY OF CANADA (DOE) (CANADA)"
"02ZK002",113,170,82,"Normal","Newfoundland - Labrador",25,"NORTHEAST RIVER NEAR PLACENTIA","NL",47.27397,-53.83872,89.6,41,1979,2019,FALSE,"Continuous","WATER SURVEY OF CANADA (DOE) (CANADA)"
"02ZK003",108,183,74,"Normal","Newfoundland - Labrador",25,"LITTLE BARACHOIS RIVER NEAR PLACENTIA","NL",47.18131,-54.03892,37.2,37,1983,2019,FALSE,"Continuous","WATER SURVEY OF CANADA (DOE) (CANADA)"
"02ZK004",108,198,59,"Normal","Newfoundland - Labrador",25,"LITTLE SALMONIER RIVER NEAR NORTH HARBOUR","NL",47.12183,-53.73178,104,37,1983,2019,FALSE,"Continuous","WATER SURVEY OF CANADA (DOE) (CANADA)"
"02ZL004",121,182,62,"Normal","Newfoundland - Labrador",25,"SHEARSTOWN BROOK AT SHEARSTOWN","NL",47.58306,-53.30808,28.9,37,1983,2019,FALSE,"Continuous","WATER SURVEY OF CANADA (DOE) (CANADA)"
"02ZL005",146,137,82,"Low","Newfoundland - Labrador",25,"BIG BROOK AT LEAD COVE","NL",48.04278,-53.08211,11.2,36,1985,2020,FALSE,"Continuous","WATER SURVEY OF CANADA (DOE) (CANADA)"
"02ZM001",95,167,103,"Normal","Newfoundland - Labrador",25,"PETTY HARBOUR RIVER AT SECOND POND","NL",47.4575,-52.72972,134,49,1962,2010,TRUE,"Continuous","NEWFOUNDLAND LIGHT AND POWER COMPANY LIMITED"
"02ZM002",47,281,37,"Normal","Newfoundland - Labrador",25,"PIERRES BROOK AT GULL POND","NL",47.29722,-52.85,117,49,1962,2010,TRUE,"Continuous","NEWFOUNDLAND LIGHT AND POWER COMPANY LIMITED"
"02ZM003",87,186,92,"Normal","Newfoundland - Labrador",25,"MOBILE RIVER AT MOBILE FIRST POND","NL",47.24944,-52.88889,112,49,1962,2010,TRUE,"Continuous","NEWFOUNDLAND LIGHT AND POWER COMPANY LIMITED"
"02ZM006",147,138,80,"Low","Newfoundland - Labrador",25,"NORTHEAST POND RIVER AT NORTHEAST POND","NL",47.63464,-52.83656,3.63,67,1953,2019,FALSE,"Continuous","WATER SURVEY OF CANADA (DOE) (CANADA)"
"02ZM008",79,183,103,"Normal","Newfoundland - Labrador",25,"WATERFORD RIVER AT KILBRIDE","NL",47.52906,-52.74506,52.7,46,1974,2020,FALSE,"Continuous","WATER SURVEY OF CANADA (DOE) (CANADA)"
"02ZM009",162,142,61,"Low","Newfoundland - Labrador",25,"SEAL COVE BROOK NEAR CAPPAHAYDEN","NL",46.84628,-52.97258,53.6,41,1979,2019,FALSE,"Continuous","WATER SURVEY OF CANADA (DOE) (CANADA)"
"02ZM016",121,183,61,"Normal","Newfoundland - Labrador",25,"SOUTH RIVER NEAR HOLYROOD","NL",47.35467,-53.11722,17.3,37,1983,2019,FALSE,"Continuous","WATER SURVEY OF CANADA (DOE) (CANADA)"
"02ZM018",126,163,76,"Normal","Newfoundland - Labrador",25,"VIRGINIA RIVER AT PLEASANTVILLE","NL",47.58894,-52.69078,10.7,37,1984,2020,FALSE,"Continuous","WATER SURVEY OF CANADA (DOE) (CANADA)"
"02ZM020",100,165,100,"Normal","Newfoundland - Labrador",25,"LEARYS BROOK AT PRINCE PHILIP DRIVE","NL",47.56425,-52.74847,17.8,36,1985,2020,FALSE,"Continuous","WATER SURVEY OF CANADA (DOE) (CANADA)"
"02ZN002",115,183,67,"Normal","Newfoundland - Labrador",25,"ST. SHOTTS RIVER NEAR TREPASSEY","NL",46.70989,-53.48558,15.5,35,1985,2019,FALSE,"Continuous","WATER SURVEY OF CANADA (DOE) (CANADA)"
"03AB002",162,158,45,"Low","Northern Quebec",18,"WASWANIPI (RIVIERE) A LA CHUTE ROUGE","QC",49.8575,-77.18722,31900,54,1966,2020,FALSE,"Continuous","MINISTERE DE L'ENVIRONNEMENT DU QUEBEC"
"03AC004",146,126,93,"Low","Northern Quebec",18,"BELL (RIVIERE) EN AMONT DU LAC MATAGAMI","QC",49.75306,-77.61444,22200,59,1962,2020,FALSE,"Continuous","MINISTERE DE L'ENVIRONNEMENT DU QUEBEC"
"03BF001",134,172,59,"Normal","Northern Quebec",18,"PONTAX (RIVIERE) À 60,4 KM DE L'EMBOUCHURE","QC",51.53361,-78.09667,6090,45,1975,2020,FALSE,"Continuous","MINISTERE DE L'ENVIRONNEMENT DU QUEBEC"
"03ED001",96,192,77,"Normal","Northern Quebec",18,"BALEINE (GRANDE RIVIERE DE LA) EN AMONT DE LA RIVIERE DENYS-1","QC",55.2375,-76.98389,32500,56,1961,2020,FALSE,"Continuous","MINISTERE DE L'ENVIRONNEMENT DU QUEBEC"
"03FA003",161,204,0,"Normal","Northern Quebec",18,"LOUPS MARINS (LAC DES) DANS LE BASSIN VERSANT DE LA RIVIÈRE NASTAPOCA","QC",56.45444,-74.23139,8390,45,1974,2020,FALSE,"Continuous","MINISTERE DE L'ENVIRONNEMENT DU QUEBEC"
"03NF001",149,102,114,"Low","Newfoundland - Labrador",25,"UGJOKTOK RIVER BELOW HARP LAKE","NL",55.23414,-61.30169,7570,42,1979,2020,FALSE,"Continuous","WATER SURVEY OF CANADA (DOE) (CANADA)"
"03OA001",50,149,166,"High","Newfoundland - Labrador",25,"ASHUANIPI RIVER AT MENIHEK RAPIDS","NL",54.455,-66.625,19000,59,1952,2010,TRUE,"Continuous","NEWFOUNDLAND AND LABRADOR HYDRO"
"03OC006",26,274,65,"Normal","Newfoundland - Labrador",25,"ATIKONAK RIVER AT GABBRO LAKE","NL",53.77222,-65.39639,21400,38,1973,2010,TRUE,"Continuous","NEWFOUNDLAND AND LABRADOR HYDRO"
"03OD005",78,221,66,"Normal","Newfoundland - Labrador",25,"CHURCHILL RIVER AT CHURCHILL FALLS POWERHOUSE","NL",53.53611,-63.96417,69200,39,1972,2010,TRUE,"Continuous","NEWFOUNDLAND AND LABRADOR HYDRO"
"03OD006",0,365,0,"Normal","Newfoundland - Labrador",25,"ATIKONAK RIVER AT OSSAKMANUAN LAKE CONTROL STRUCTURE","NL",53.44806,-64.76917,NA,34,1977,2010,TRUE,"Continuous","NEWFOUNDLAND AND LABRADOR HYDRO"
"03OE001",61,194,110,"Normal","Newfoundland - Labrador",25,"CHURCHILL RIVER ABOVE UPPER MUSKRAT FALLS","NL",53.24831,-60.78511,92500,66,1948,2016,TRUE,"Continuous","WATER SURVEY OF CANADA (DOE) (CANADA)"
"03OE003",69,244,52,"Normal","Newfoundland - Labrador",25,"MINIPI RIVER BELOW MINIPI LAKE","NL",52.61258,-61.18544,2330,35,1979,2014,FALSE,"Continuous","WATER SURVEY OF CANADA (DOE) (CANADA)"
"03PB002",89,163,113,"Normal","Newfoundland - Labrador",25,"NASKAUPI RIVER BELOW NASKAUPI LAKE","NL",54.13192,-61.42681,4480,34,1978,2012,FALSE,"Continuous","WATER SURVEY OF CANADA (DOE) (CANADA)"
"03QC001",17,299,49,"Normal","Newfoundland - Labrador",25,"EAGLE RIVER ABOVE FALLS","NL",53.53428,-57.49386,10900,55,1966,2020,FALSE,"Continuous","WATER SURVEY OF CANADA (DOE) (CANADA)"
"03QC002",47,238,80,"Normal","Newfoundland - Labrador",25,"ALEXIS RIVER NEAR PORT HOPE SIMPSON","NL",52.64861,-56.87122,2310,43,1978,2020,FALSE,"Continuous","WATER SURVEY OF CANADA (DOE) (CANADA)"
"04AA004",0,176,167,"Normal","Northern Ontario",17,"HAYES RIVER BELOW TROUT FALLS","MB",54.85639,-95.12,9190,47,1974,2020,FALSE,"Continuous","WATER SURVEY OF CANADA (DOE) (CANADA)"
"04DA001",109,136,120,"Normal","Northern Ontario",17,"PIPESTONE RIVER AT KARL LAKE","ON",52.58058,-90.18669,5960,55,1966,2020,FALSE,"Continuous","WATER SURVEY OF CANADA (DOE) (CANADA)"
"04DB001",84,281,0,"Normal","Northern Ontario",17,"ASHEWEIG RIVER AT STRAIGHT LAKE","ON",53.71175,-87.95339,7950,51,1966,2020,FALSE,"Continuous","WATER SURVEY OF CANADA (DOE) (CANADA)"
"04DC001",107,171,32,"Normal","Northern Ontario",17,"WINISK RIVER BELOW ASHEWEIG RIVER TRIBUTARY","ON",54.49961,-87.22769,50000,53,1965,2020,FALSE,"Continuous","WATER SURVEY OF CANADA (DOE) (CANADA)"
"04DC002",153,161,51,"Normal","Northern Ontario",17,"SHAMATTAWA RIVER AT OUTLET OF SHAMATTAWA LAKE","ON",54.28975,-85.65153,4710,52,1966,2020,FALSE,"Continuous","WATER SURVEY OF CANADA (DOE) (CANADA)"
"04FA003",31,217,117,"Normal","Northern Ontario",17,"PINEIMUTA RIVER AT EYES LAKE","ON",52.30828,-88.76033,4900,51,1966,2020,FALSE,"Continuous","WATER SURVEY OF CANADA (DOE) (CANADA)"
"04FC001",42,194,129,"Normal","Northern Ontario",17,"ATTAWAPISKAT RIVER BELOW MUKETEI RIVER","ON",53.09131,-85.07225,36000,50,1968,2020,FALSE,"Continuous","WATER SURVEY OF CANADA (DOE) (CANADA)"
"04GA002",0,331,34,"Normal","Northern Ontario",17,"CAT RIVER BELOW WESLEYAN LAKE","ON",51.17378,-91.59458,5390,50,1970,2020,FALSE,"Continuous","WATER SURVEY OF CANADA (DOE) (CANADA)"
"04GB004",3,309,52,"Normal","Northern Ontario",17,"OGOKI RIVER ABOVE WHITECLAY LAKE","ON",50.86842,-88.93161,11200,49,1971,2020,FALSE,"Continuous","WATER SURVEY OF CANADA (DOE) (CANADA)"
"04JC002",185,124,56,"Low","Northern Ontario",17,"NAGAGAMI RIVER AT HIGHWAY NO. 11","ON",49.77289,-84.53694,2180,71,1950,2020,FALSE,"Continuous","WATER SURVEY OF CANADA (DOE) (CANADA)"
"04JD005",178,117,70,"Low","Northern Ontario",17,"PAGWACHUAN RIVER AT HIGHWAY NO. 11","ON",49.76419,-85.22619,2120,53,1968,2020,FALSE,"Continuous","WATER SURVEY OF CANADA (DOE) (CANADA)"
"04KA001",138,140,87,"Normal","Northern Ontario",17,"KWETABOHIGAN RIVER NEAR THE MOUTH","ON",51.16083,-80.86394,4250,53,1967,2020,FALSE,"Continuous","WATER SURVEY OF CANADA (DOE) (CANADA)"
"04LJ001",151,149,65,"Low","Northern Ontario",17,"MISSINAIBI RIVER AT MATTICE","ON",49.61108,-83.26778,8570,100,1920,2019,FALSE,"Continuous","WATER SURVEY OF CANADA (DOE) (CANADA)"
"04LM001",156,127,82,"Low","Northern Ontario",17,"MISSINAIBI RIVER BELOW WABOOSE RIVER","ON",50.58544,-82.091,22900,48,1972,2019,FALSE,"Continuous","WATER SURVEY OF CANADA (DOE) (CANADA)"
"04MF001",117,154,94,"Normal","Northern Ontario",17,"NORTH FRENCH RIVER NEAR THE MOUTH","ON",51.07672,-80.76408,6680,54,1966,2019,FALSE,"Continuous","WATER SURVEY OF CANADA (DOE) (CANADA)"
"04NA001",192,72,101,"Low","Northern Quebec",18,"HARRICANA (RIVIERE) 3,1 KM EN AVAL DU PONT-ROUTE 111 A AMOS","QC",48.60056,-78.10944,3680,88,1933,2020,FALSE,"Continuous","MINISTERE DE L'ENVIRONNEMENT DU QUEBEC"
"05AA004",136,95,14,"Low","South Saskatchewan",11,"PINCHER CREEK AT PINCHER CREEK","AB",49.4864,-113.94769,158,79,1910,2020,FALSE,"Seasonal","WATER SURVEY OF CANADA (DOE) (CANADA)"
"05AA008",344,21,0,"Low","South Saskatchewan",11,"CROWSNEST RIVER AT FRANK","AB",49.59732,-114.41064,403,82,1910,2019,FALSE,"Continuous","WATER SURVEY OF CANADA (DOE) (CANADA)"
"05AA022",314,48,3,"Low","South Saskatchewan",11,"CASTLE RIVER NEAR BEAVER MINES","AB",49.48866,-114.14438,821,74,1945,2019,FALSE,"Continuous","WATER SURVEY OF CANADA (DOE) (CANADA)"
"05AA023",330,33,2,"Low","South Saskatchewan",11,"OLDMAN RIVER NEAR WALDRON'S CORNER","AB",49.81389,-114.18333,1446.1,60,1949,2008,FALSE,"Continuous","WATER SURVEY OF CANADA (DOE) (CANADA)"
"05AA024",141,158,66,"Normal","South Saskatchewan",11,"OLDMAN RIVER NEAR BROCKET","AB",49.55781,-113.82272,4400,53,1966,2019,TRUE,"Continuous","WATER SURVEY OF CANADA (DOE) (CANADA)"
"05AA027",195,18,1,"Low","South Saskatchewan",11,"RACEHORSE CREEK NEAR THE MOUTH","AB",49.83779,-114.42059,218,54,1966,2020,FALSE,"Seasonal","WATER SURVEY OF CANADA (DOE) (CANADA)"
"05AA028",162,82,1,"Low","South Saskatchewan",11,"CASTLE RIVER AT RANGER STATION","AB",49.39745,-114.3399,375,54,1967,2020,FALSE,"Seasonal","WATER SURVEY OF CANADA (DOE) (CANADA)"
"05AA030",174,68,2,"Low","South Saskatchewan",11,"GOLD CREEK NEAR FRANK","AB",49.60185,-114.40054,63.3,45,1975,2019,FALSE,"Seasonal","WATER SURVEY OF CANADA (DOE) (CANADA)"
"05AA909",161,33,3,"Low","South Saskatchewan",11,"TODD CREEK NEAR HIGHWAY NO.22","AB",49.76328,-114.2381,74,38,1982,2020,FALSE,"Seasonal","WATER SURVEY OF CANADA (DOE) (CANADA)"
"05AB005",106,137,2,"Normal","South Saskatchewan",11,"TROUT CREEK NEAR GRANUM","AB",49.97735,-113.68603,441,56,1908,2019,FALSE,"Seasonal","WATER SURVEY OF CANADA (DOE) (CANADA)"
"05AB013",82,153,10,"Normal","South Saskatchewan",11,"BEAVER CREEK NEAR BROCKET","AB",49.63938,-113.7953,256,59,1921,2020,FALSE,"Seasonal","WATER SURVEY OF CANADA (DOE) (CANADA)"
"05AB019",2,91,121,"High","South Saskatchewan",11,"LETHBRIDGE NORTHERN IRRIGATION DISTRICT CANAL ABOVE OLDMAN FLUME","AB",49.68706,-113.57692,NA,38,1930,2020,TRUE,"Seasonal","WATER SURVEY OF CANADA (DOE) (CANADA)"
"05AB021",159,206,0,"Normal","South Saskatchewan",11,"WILLOW CREEK NEAR CLARESHOLM","AB",50.01852,-113.71484,1180,76,1908,2019,TRUE,"Continuous","WATER SURVEY OF CANADA (DOE) (CANADA)"
"05AB029",62,174,9,"Normal","South Saskatchewan",11,"MEADOW CREEK NEAR THE MOUTH","AB",49.95413,-113.66354,130,53,1966,2019,FALSE,"Seasonal","WATER SURVEY OF CANADA (DOE) (CANADA)"
"05AC003",209,156,0,"Low","South Saskatchewan",11,"LITTLE BOW RIVER AT CARMANGAY","AB",50.12765,-113.11819,2780,82,1918,2020,TRUE,"Continuous","WATER SURVEY OF CANADA (DOE) (CANADA)"
"05AC012",184,30,0,"Low","South Saskatchewan",11,"LITTLE BOW RIVER BELOW TRAVERS DAM","AB",50.1712,-112.72277,5340,64,1957,2020,TRUE,"Seasonal","WATER SURVEY OF CANADA (DOE) (CANADA)"
"05AC017",1,108,105,"Normal","South Saskatchewan",11,"LOMOND LATERAL NEAR HEADGATE","AB",50.21455,-112.66189,NA,60,1959,2019,TRUE,"Seasonal","WATER SURVEY OF CANADA (DOE) (CANADA)"
"05AC023",76,108,0,"Normal","South Saskatchewan",11,"LITTLE BOW RIVER NEAR THE MOUTH","AB",49.89987,-112.50553,5900,48,1973,2020,TRUE,"Seasonal","WATER SURVEY OF CANADA (DOE) (CANADA)"
"05AC025",0,78,136,"High","South Saskatchewan",11,"MCGREGOR TRAVERS CANAL NEAR CHAMPION","AB",50.25417,-112.81667,NA,32,1976,2007,TRUE,"Seasonal","WATER SURVEY OF CANADA (DOE) (CANADA)"
"05AC030",16,257,0,"Normal","South Saskatchewan",11,"SNAKE CREEK NEAR VULCAN","AB",50.47247,-112.91402,350,38,1980,2019,FALSE,"Seasonal","WATER SURVEY OF CANADA (DOE) (CANADA)"
"05AC031",101,125,19,"Normal","South Saskatchewan",11,"MOSQUITO CREEK NEAR THE MOUTH","AB",50.25185,-113.55414,958,37,1982,2019,TRUE,"Seasonal","WATER SURVEY OF CANADA (DOE) (CANADA)"
"05AC902",2,74,108,"High","South Saskatchewan",11,"BOW RIVER DEVELOPMENT MAIN CANAL AT DROP NO. 3","AB",50.15694,-112.53333,NA,36,1981,2020,TRUE,"Seasonal","ALBERTA ENVIRONMENTAL PROTECTION"
"05AD003",274,87,4,"Low","South Saskatchewan",11,"WATERTON RIVER NEAR WATERTON PARK","AB",49.11366,-113.8394,613,96,1908,2019,FALSE,"Continuous","WATER SURVEY OF CANADA (DOE) (CANADA)"
"05AD005",226,131,8,"Low","South Saskatchewan",11,"BELLY RIVER NEAR MOUNTAIN VIEW","AB",49.0996,-113.69772,319,107,1911,2019,TRUE,"Continuous","WATER SURVEY OF CANADA (DOE) (CANADA)"
"05AD007",206,159,0,"Low","South Saskatchewan",11,"OLDMAN RIVER NEAR LETHBRIDGE","AB",49.70942,-112.86288,17000,103,1911,2020,TRUE,"Continuous","WATER SURVEY OF CANADA (DOE) (CANADA)"
"05AD010",272,81,12,"Low","South Saskatchewan",11,"DRYWOOD CREEK NEAR THE MOUTH","AB",49.29441,-113.79424,239,64,1920,2019,TRUE,"Continuous","WATER SURVEY OF CANADA (DOE) (CANADA)"
"05AD013",38,155,51,"Normal","South Saskatchewan",11,"UNITED IRRIGATION DISTRICT CANAL NEAR HILL SPRING","AB",49.21804,-113.63324,NA,83,1923,2020,TRUE,"Seasonal","WATER SURVEY OF CANADA (DOE) (CANADA)"
"05AD017",33,177,34,"Normal","South Saskatchewan",11,"MOUNTAIN VIEW IRRIGATION DISTRICT CANAL","AB",49.07972,-113.68889,NA,86,1935,2020,TRUE,"Seasonal","WATER SURVEY OF CANADA (DOE) (CANADA)"
"05AD021",33,170,42,"Normal","South Saskatchewan",11,"BELLY - ST. MARY DIVERSION CANAL","AB",49.33607,-113.55406,NA,61,1959,2020,TRUE,"Seasonal","WATER SURVEY OF CANADA (DOE) (CANADA)"
"05AD027",27,184,34,"Normal","South Saskatchewan",11,"WATERTON - BELLY DIVERSION CANAL","AB",49.32703,-113.63383,NA,52,1968,2019,TRUE,"Seasonal","WATER SURVEY OF CANADA (DOE) (CANADA)"
"05AD028",141,224,0,"Normal","South Saskatchewan",11,"WATERTON RIVER NEAR GLENWOOD","AB",49.43336,-113.48478,1630,53,1966,2019,TRUE,"Continuous","WATER SURVEY OF CANADA (DOE) (CANADA)"
"05AD035",0,223,22,"Normal","South Saskatchewan",11,"PRAIRIE BLOOD COULEE NEAR LETHBRIDGE","AB",49.56628,-112.95427,214,49,1970,2019,FALSE,"Seasonal","WATER SURVEY OF CANADA (DOE) (CANADA)"
"05AD037",6,130,48,"Normal","South Saskatchewan",11,"PIYAMI DRAIN NEAR PICTURE BUTTE","AB",49.83062,-112.76438,NA,49,1972,2020,TRUE,"Seasonal","WATER SURVEY OF CANADA (DOE) (CANADA)"
"05AD041",292,71,2,"Low","South Saskatchewan",11,"BELLY RIVER NEAR GLENWOOD","AB",49.35212,-113.48044,653,36,1985,2021,TRUE,"Continuous","WATER SURVEY OF CANADA (DOE) (CANADA)"
"05AE002",199,155,11,"Low","South Saskatchewan",11,"LEE CREEK AT CARDSTON","AB",49.19971,-113.29652,316,104,1909,2019,TRUE,"Continuous","WATER SURVEY OF CANADA (DOE) (CANADA)"
"05AE005",214,28,3,"Low","South Saskatchewan",11,"ROLPH CREEK NEAR KIMBALL","AB",49.12501,-113.14256,227,88,1911,2019,FALSE,"Seasonal","WATER SURVEY OF CANADA (DOE) (CANADA)"
"05AE006",165,200,0,"Normal","South Saskatchewan",11,"ST. MARY RIVER NEAR LETHBRIDGE","AB",49.57346,-112.84671,3530,108,1911,2019,TRUE,"Continuous","WATER SURVEY OF CANADA (DOE) (CANADA)"
"05AE016",98,108,8,"Normal","South Saskatchewan",11,"POTHOLE CREEK AT RUSSELL'S RANCH","AB",49.56554,-112.82741,770,87,1919,2020,TRUE,"Seasonal","WATER SURVEY OF CANADA (DOE) (CANADA)"
"05AE021",24,129,61,"Normal","South Saskatchewan",11,"MAGRATH IRRIGATION DISTRICT CANAL NEAR SPRING COULEE","AB",49.34839,-113.05515,NA,94,1927,2020,TRUE,"Seasonal","WATER SURVEY OF CANADA (DOE) (CANADA)"
"05AE026",34,189,21,"Normal","South Saskatchewan",11,"CANADIAN ST. MARY CANAL NEAR SPRING COULEE","AB",49.34363,-113.04353,NA,69,1952,2020,TRUE,"Seasonal","WATER SURVEY OF CANADA (DOE) (CANADA)"
"05AE027",275,89,1,"Low","South Saskatchewan",11,"ST. MARY RIVER AT INTERNATIONAL BOUNDARY","AB",49.01206,-113.29956,1210,117,1902,2018,TRUE,"Continuous","WATER SURVEY OF CANADA (DOE) (CANADA)"
"05AE029",50,169,26,"Normal","South Saskatchewan",11,"ST. MARY CANAL AT ST. MARY CROSSING","MT",48.94703,-113.37521,NA,102,1918,2019,TRUE,"Seasonal","WATER SURVEY OF CANADA (DOE) (CANADA)"
"05AF010",6,262,5,"Normal","South Saskatchewan",11,"MANYBERRIES CREEK AT BRODIN'S FARM","AB",49.35833,-110.725,338,97,1911,2011,FALSE,"Seasonal","WATER SURVEY OF CANADA (DOE) (CANADA)"
"05AF029",154,77,14,"Low","South Saskatchewan",11,"STIRLING LAKE OUTFLOW NEAR STIRLING","AB",49.53077,-112.5106,411.2,34,1976,2009,TRUE,"Seasonal","WATER SURVEY OF CANADA (DOE) (CANADA)"
"05AF031",157,83,5,"Low","South Saskatchewan",11,"RUSH LAKE DRAIN NEAR NEW DAYTON","AB",49.43215,-112.17917,699.7,28,1982,2009,TRUE,"Seasonal","WATER SURVEY OF CANADA (DOE) (CANADA)"
"05AG003",41,138,5,"Normal","South Saskatchewan",11,"EXPANSE COULEE NEAR THE MOUTH","AB",49.98871,-112.08224,1880,64,1957,2020,TRUE,"Seasonal","WATER SURVEY OF CANADA (DOE) (CANADA)"
"05AG006",240,125,0,"Low","South Saskatchewan",11,"OLDMAN RIVER NEAR THE MOUTH","AB",49.91889,-111.8,27500,44,1964,2020,TRUE,"Continuous","WATER SURVEY OF CANADA (DOE) (CANADA)"
"05AG026",84,99,1,"Normal","South Saskatchewan",11,"BOUNTIFUL COULEE INFLOW NEAR CRANFORD","AB",49.78561,-112.31609,43.2,41,1980,2020,TRUE,"Seasonal","WATER SURVEY OF CANADA (DOE) (CANADA)"
"05AH001",0,273,0,"Normal","South Saskatchewan",11,"BOXELDER CREEK NEAR WALSH","SK",49.96179,-109.98937,321,80,1911,2020,TRUE,"Seasonal","WATER SURVEY OF CANADA (DOE) (CANADA)"
"05AH002",4,269,0,"Normal","South Saskatchewan",11,"MACKAY CREEK AT WALSH","AB",49.94091,-110.04722,437,73,1911,2019,TRUE,"Seasonal","WATER SURVEY OF CANADA (DOE) (CANADA)"
"05AH005",184,4,0,"Low","South Saskatchewan",11,"SEVEN PERSONS CREEK AT MEDICINE HAT","AB",50.02365,-110.68351,3280,90,1910,2020,TRUE,"Seasonal","WATER SURVEY OF CANADA (DOE) (CANADA)"
"05AH037",40,233,0,"Normal","South Saskatchewan",11,"GROS VENTRE CREEK NEAR DUNMORE","AB",49.88778,-110.50711,215,78,1921,2019,FALSE,"Seasonal","WATER SURVEY OF CANADA (DOE) (CANADA)"
"05AH041",45,223,5,"Normal","South Saskatchewan",11,"PEIGAN CREEK NEAR PAKOWKI ROAD","AB",49.5805,-110.9437,439,57,1960,2019,FALSE,"Seasonal","WATER SURVEY OF CANADA (DOE) (CANADA)"
"05AH043",3,270,0,"Normal","South Saskatchewan",11,"EAST MCALPINE CREEK NEAR ELKWATER LAKE","AB",49.79457,-110.18655,19.8,43,1976,2019,TRUE,"Seasonal","WATER SURVEY OF CANADA (DOE) (CANADA)"
"05AH044",1,272,0,"Normal","South Saskatchewan",11,"CAVAN LAKE DIVERSION NEAR DUNMORE","AB",49.89692,-110.48235,NA,39,1981,2019,TRUE,"Seasonal","WATER SURVEY OF CANADA (DOE) (CANADA)"
"05AH047",0,271,2,"Normal","South Saskatchewan",11,"SAM LAKE TRIBUTARY NEAR SCHULER","AB",50.16348,-110.25759,82.3,35,1982,2019,FALSE,"Seasonal","WATER SURVEY OF CANADA (DOE) (CANADA)"
"05AJ001",308,57,0,"Low","South Saskatchewan",11,"SOUTH SASKATCHEWAN RIVER AT MEDICINE HAT","AB",50.04209,-110.67754,56400,109,1911,2020,TRUE,"Continuous","WATER SURVEY OF CANADA (DOE) (CANADA)"
"05BA001",100,78,6,"Low","South Saskatchewan",11,"BOW RIVER AT LAKE LOUISE","AB",51.4286,-116.18894,422,67,1910,2020,FALSE,"Seasonal","WATER SURVEY OF CANADA (DOE) (CANADA)"
"05BA002",208,147,10,"Low","South Saskatchewan",11,"PIPESTONE RIVER NEAR LAKE LOUISE","AB",51.43311,-116.17495,306,49,1911,2019,TRUE,"Continuous","WATER SURVEY OF CANADA (DOE) (CANADA)"
"05BB001",246,113,6,"Low","South Saskatchewan",11,"BOW RIVER AT BANFF","AB",51.17223,-115.57177,2210,110,1909,2019,FALSE,"Continuous","WATER SURVEY OF CANADA (DOE) (CANADA)"
"05BC001",266,95,4,"Low","South Saskatchewan",11,"SPRAY RIVER AT BANFF","AB",51.16018,-115.55447,751,108,1910,2019,TRUE,"Continuous","WATER SURVEY OF CANADA (DOE) (CANADA)"
"05BC008",240,122,3,"Low","South Saskatchewan",11,"GOAT CREEK AT BANFF PARK BOUNDARY","AB",51.05833,-115.43056,40.9,42,1976,2018,TRUE,"Continuous","TRANSALTA UTILITIES CORPORATION"
"05BD004",99,253,13,"Normal","South Saskatchewan",11,"CASCADE POWER DIVERSION NEAR BANFF","AB",51.19917,-115.50222,NA,75,1942,2016,TRUE,"Continuous","TRANSALTA UTILITIES CORPORATION"
"05BE004",228,132,5,"Low","South Saskatchewan",11,"BOW RIVER NEAR SEEBE","AB",51.11944,-115.03333,5170,78,1923,2016,TRUE,"Continuous","TRANSALTA UTILITIES CORPORATION"
"05BE007",132,193,40,"Normal","South Saskatchewan",11,"SPRAY POWER DIVERSION AT CANMORE","AB",51.08889,-115.37361,NA,42,1975,2016,TRUE,"Continuous","TRANSALTA UTILITIES CORPORATION"
"05BF003",69,280,16,"Normal","South Saskatchewan",11,"KANANASKIS RIVER ABOVE POCATERRA CREEK","AB",50.7,-115.11806,362,63,1931,2012,TRUE,"Continuous","TRANSALTA UTILITIES CORPORATION"
"05BF016",136,46,2,"Low","South Saskatchewan",11,"MARMOT CREEK MAIN STEM NEAR SEEBE","AB",50.95054,-115.15289,9.1,55,1962,2016,FALSE,"Seasonal","WATER SURVEY OF CANADA (DOE) (CANADA)"
"05BF025",144,215,6,"Normal","South Saskatchewan",11,"KANANASKIS RIVER BELOW BARRIER DAM","AB",51.04167,-115.03194,899,42,1975,2016,TRUE,"Continuous","TRANSALTA UTILITIES CORPORATION"
"05BG006",251,101,13,"Low","South Saskatchewan",11,"WAIPAROUS CREEK NEAR THE MOUTH","AB",51.28281,-114.83841,333,54,1966,2019,FALSE,"Continuous","WATER SURVEY OF CANADA (DOE) (CANADA)"
"05BG010",277,86,2,"Low","South Saskatchewan",11,"GHOST RIVER ABOVE WAIPAROUS CREEK","AB",51.27003,-114.92553,485,37,1983,2019,TRUE,"Continuous","WATER SURVEY OF CANADA (DOE) (CANADA)"
"05BH004",297,68,0,"Low","South Saskatchewan",11,"BOW RIVER AT CALGARY","AB",51.05027,-114.05146,7870,109,1911,2020,TRUE,"Continuous","WATER SURVEY OF CANADA (DOE) (CANADA)"
"05BH008",295,70,0,"Low","South Saskatchewan",11,"BOW RIVER BELOW BEARSPAW DAM","AB",51.09944,-114.22528,7770,33,1983,2016,TRUE,"Continuous","TRANSALTA UTILITIES CORPORATION"
"05BH009",205,137,23,"Low","South Saskatchewan",11,"JUMPINGPOUND CREEK NEAR THE MOUTH","AB",51.15444,-114.52833,571,42,1965,2006,FALSE,"Continuous","WATER SURVEY OF CANADA (DOE) (CANADA)"
"05BH013",107,63,14,"Low","South Saskatchewan",11,"JUMPINGPOUND CREEK NEAR COX HILL","AB",51.00233,-114.93814,36.9,43,1976,2020,FALSE,"Seasonal","WATER SURVEY OF CANADA (DOE) (CANADA)"
"05BJ001",103,241,21,"Normal","South Saskatchewan",11,"ELBOW RIVER BELOW GLENMORE DAM","AB",51.01279,-114.0932,1240,112,1908,2019,TRUE,"Continuous","WATER SURVEY OF CANADA (DOE) (CANADA)"
"05BJ004",227,128,10,"Low","South Saskatchewan",11,"ELBOW RIVER AT BRAGG CREEK","AB",50.94893,-114.57095,791,84,1934,2019,FALSE,"Continuous","WATER SURVEY OF CANADA (DOE) (CANADA)"
"05BJ010",131,49,18,"Low","South Saskatchewan",11,"ELBOW RIVER AT SARCEE BRIDGE","AB",50.9935,-114.16989,1190,38,1979,2019,FALSE,"Seasonal","WATER SURVEY OF CANADA (DOE) (CANADA)"
"05BK001",128,96,21,"Low","South Saskatchewan",11,"FISH CREEK NEAR PRIDDIS","AB",50.88547,-114.32684,261,73,1908,2019,FALSE,"Seasonal","WATER SURVEY OF CANADA (DOE) (CANADA)"
"05BL007",103,128,14,"Normal","South Saskatchewan",11,"STIMSON CREEK NEAR PEKISKO","AB",50.43012,-114.167,236,91,1911,2019,TRUE,"Seasonal","WATER SURVEY OF CANADA (DOE) (CANADA)"
"05BL013",125,98,22,"Low","South Saskatchewan",11,"THREEPOINT CREEK NEAR MILLARVILLE","AB",50.77113,-114.27874,507,61,1909,2019,FALSE,"Seasonal","WATER SURVEY OF CANADA (DOE) (CANADA)"
"05BL014",268,82,15,"Low","South Saskatchewan",11,"SHEEP RIVER AT BLACK DIAMOND","AB",50.68855,-114.24491,592,60,1909,2019,FALSE,"Continuous","WATER SURVEY OF CANADA (DOE) (CANADA)"
"05BL015",145,161,59,"Normal","South Saskatchewan",11,"LITTLE BOW CANAL AT HIGH RIVER","AB",50.5831,-113.86995,NA,108,1910,2020,TRUE,"Continuous","WATER SURVEY OF CANADA (DOE) (CANADA)"
"05BL019",205,37,3,"Low","South Saskatchewan",11,"HIGHWOOD RIVER AT DIEBEL'S RANCH","AB",50.40506,-114.50072,774,68,1950,2019,FALSE,"Seasonal","WATER SURVEY OF CANADA (DOE) (CANADA)"
"05BL022",316,45,4,"Low","South Saskatchewan",11,"CATARACT CREEK NEAR FORESTRY ROAD","AB",50.28526,-114.58871,166,52,1966,2019,FALSE,"Continuous","WATER SURVEY OF CANADA (DOE) (CANADA)"
"05BL023",140,94,11,"Low","South Saskatchewan",11,"PEKISKO CREEK NEAR LONGVIEW","AB",50.47409,-114.2073,232,51,1967,2019,FALSE,"Seasonal","WATER SURVEY OF CANADA (DOE) (CANADA)"
"05BL024",285,72,8,"Low","South Saskatchewan",11,"HIGHWOOD RIVER NEAR THE MOUTH","AB",50.7825,-113.82267,3950,50,1970,2019,TRUE,"Continuous","WATER SURVEY OF CANADA (DOE) (CANADA)"
"05BL025",34,65,115,"High","South Saskatchewan",11,"HIGHWOOD DIVERSION CANAL NEAR HEADGATES","AB",50.55213,-113.98988,NA,42,1977,2018,TRUE,"Seasonal","ALBERTA ENVIRONMENT AND PARKS"
"05BL027",119,58,7,"Low","South Saskatchewan",11,"TRAP CREEK NEAR LONGVIEW","AB",50.47732,-114.42632,137,40,1979,2019,FALSE,"Seasonal","WATER SURVEY OF CANADA (DOE) (CANADA)"
"05BM002",180,33,1,"Low","South Saskatchewan",11,"BOW RIVER BELOW CARSELAND DAM","AB",50.82282,-113.44483,15700,69,1910,2020,TRUE,"Seasonal","WATER SURVEY OF CANADA (DOE) (CANADA)"
"05BM004",165,49,0,"Low","South Saskatchewan",11,"BOW RIVER BELOW BASSANO DAM","AB",50.75018,-112.54225,20300,79,1910,2019,TRUE,"Seasonal","WATER SURVEY OF CANADA (DOE) (CANADA)"
"05BM007",0,245,0,"Normal","South Saskatchewan",11,"PARFLESH CREEK NEAR CHANCELLOR","AB",50.99449,-112.84209,129,51,1965,2019,TRUE,"Seasonal","WATER SURVEY OF CANADA (DOE) (CANADA)"
"05BM008",74,156,15,"Normal","South Saskatchewan",11,"CROWFOOT CREEK NEAR CLUNY","AB",50.83462,-112.76305,1370,70,1951,2020,TRUE,"Seasonal","WATER SURVEY OF CANADA (DOE) (CANADA)"
"05BM014",44,228,1,"Normal","South Saskatchewan",11,"WEST ARROWWOOD CREEK NEAR ARROWWOOD","AB",50.76404,-113.23631,777,55,1965,2019,FALSE,"Seasonal","WATER SURVEY OF CANADA (DOE) (CANADA)"
"05BM018",31,242,0,"Normal","South Saskatchewan",11,"WEST ARROWWOOD CREEK NEAR ENSIGN","AB",50.51377,-113.34436,29.5,32,1985,2019,FALSE,"Seasonal","WATER SURVEY OF CANADA (DOE) (CANADA)"
"05BN002",121,49,14,"Low","South Saskatchewan",11,"TWELVE MILE CREEK NEAR CECIL","AB",50.14938,-111.66543,2800,69,1951,2019,TRUE,"Seasonal","WATER SURVEY OF CANADA (DOE) (CANADA)"
"05BN006",17,173,24,"Normal","South Saskatchewan",11,"NEW WEST COULEE NEAR THE MOUTH","AB",50.21665,-112.10495,318,64,1957,2020,TRUE,"Seasonal","WATER SURVEY OF CANADA (DOE) (CANADA)"
"05BN008",25,147,12,"Normal","South Saskatchewan",11,"BOW RIVER DEVELOPMENT DRAIN D NEAR VAUXHALL","AB",50.1954,-112.04756,NA,63,1958,2020,TRUE,"Seasonal","WATER SURVEY OF CANADA (DOE) (CANADA)"
"05BN012",295,70,0,"Low","South Saskatchewan",11,"BOW RIVER NEAR THE MOUTH","AB",50.04728,-111.59092,25300,57,1964,2020,TRUE,"Continuous","WATER SURVEY OF CANADA (DOE) (CANADA)"
"05CA002",154,73,18,"Low","South Saskatchewan",11,"JAMES RIVER NEAR SUNDRE","AB",51.92679,-114.68552,821,53,1966,2019,FALSE,"Seasonal","WATER SURVEY OF CANADA (DOE) (CANADA)"
"05CA004",160,44,10,"Low","South Saskatchewan",11,"RED DEER RIVER ABOVE PANTHER RIVER","AB",51.66051,-115.41056,941,52,1967,2019,FALSE,"Seasonal","WATER SURVEY OF CANADA (DOE) (CANADA)"
"05CA009",252,106,7,"Low","South Saskatchewan",11,"RED DEER RIVER BELOW BURNT TIMBER CREEK","AB",51.64625,-115.01925,2250,45,1973,2019,FALSE,"Continuous","WATER SURVEY OF CANADA (DOE) (CANADA)"
"05CA011",91,107,16,"Normal","South Saskatchewan",11,"BEARBERRY CREEK NEAR SUNDRE","AB",51.80208,-114.66315,238,41,1978,2019,FALSE,"Seasonal","WATER SURVEY OF CANADA (DOE) (CANADA)"
"05CA012",93,85,6,"Low","South Saskatchewan",11,"FALLENTIMBER CREEK NEAR SUNDRE","AB",51.73671,-114.6545,489,40,1978,2019,FALSE,"Seasonal","WATER SURVEY OF CANADA (DOE) (CANADA)"
"05CB001",167,181,17,"Normal","South Saskatchewan",11,"LITTLE RED DEER RIVER NEAR THE MOUTH","AB",52.02824,-114.14029,2580,60,1960,2019,FALSE,"Continuous","WATER SURVEY OF CANADA (DOE) (CANADA)"
"05CB002",130,103,12,"Low","South Saskatchewan",11,"LITTLE RED DEER RIVER NEAR WATER VALLEY","AB",51.51147,-114.67097,451,59,1961,2020,FALSE,"Seasonal","WATER SURVEY OF CANADA (DOE) (CANADA)"
"05CB004",155,204,6,"Normal","South Saskatchewan",11,"RAVEN RIVER NEAR RAVEN","AB",52.08928,-114.47748,645,49,1971,2019,FALSE,"Continuous","WATER SURVEY OF CANADA (DOE) (CANADA)"
"05CB007",178,122,4,"Low","South Saskatchewan",11,"DICKSON DAM TUNNEL OUTLET","AB",52.05835,-114.21858,5590,36,1983,2019,TRUE,"Continuous","WATER SURVEY OF CANADA (DOE) (CANADA)"
"05CC001",122,222,21,"Normal","South Saskatchewan",11,"BLINDMAN RIVER NEAR BLACKFALDS","AB",52.357,-113.795,1800,65,1916,2019,FALSE,"Continuous","WATER SURVEY OF CANADA (DOE) (CANADA)"
"05CC002",163,186,16,"Normal","South Saskatchewan",11,"RED DEER RIVER AT RED DEER","AB",52.27053,-112.17689,11600,108,1912,2020,TRUE,"Continuous","WATER SURVEY OF CANADA (DOE) (CANADA)"
"05CC007",125,227,13,"Normal","South Saskatchewan",11,"MEDICINE RIVER NEAR ECKVILLE","AB",52.31956,-114.34417,1920,58,1962,2019,FALSE,"Continuous","WATER SURVEY OF CANADA (DOE) (CANADA)"
"05CC008",82,144,19,"Normal","South Saskatchewan",11,"BLINDMAN RIVER NEAR BLUFFTON","AB",52.7563,-114.28556,353,52,1965,2019,FALSE,"Seasonal","WATER SURVEY OF CANADA (DOE) (CANADA)"
"05CC009",80,141,24,"Normal","South Saskatchewan",11,"LLOYD CREEK NEAR BLUFFTON","AB",52.74038,-114.14684,239,52,1965,2019,FALSE,"Seasonal","WATER SURVEY OF CANADA (DOE) (CANADA)"
"05CC010",95,137,13,"Normal","South Saskatchewan",11,"BLOCK CREEK NEAR LEEDALE","AB",52.57374,-114.57767,56.8,41,1976,2019,FALSE,"Seasonal","WATER SURVEY OF CANADA (DOE) (CANADA)"
"05CC011",119,121,5,"Normal","South Saskatchewan",11,"WASKASOO CREEK AT RED DEER","AB",52.26849,-113.79985,487,35,1984,2019,FALSE,"Seasonal","WATER SURVEY OF CANADA (DOE) (CANADA)"
"05CD006",9,236,0,"Normal","South Saskatchewan",11,"HAYNES CREEK NEAR HAYNES","AB",52.33191,-113.36296,165,41,1978,2019,FALSE,"Seasonal","WATER SURVEY OF CANADA (DOE) (CANADA)"
"05CD007",111,114,20,"Normal","South Saskatchewan",11,"PARLBY CREEK AT ALIX","AB",52.40747,-113.19576,511,36,1983,2019,FALSE,"Seasonal","WATER SURVEY OF CANADA (DOE) (CANADA)"
"05CD902",47,158,9,"Normal","South Saskatchewan",11,"PARLBY CREEK NEAR MIRROR","AB",52.49111,-113.10417,866,39,1981,2019,TRUE,"Seasonal","ALBERTA ENVIRONMENTAL PROTECTION"
"05CE001",153,192,20,"Normal","South Saskatchewan",11,"RED DEER RIVER AT DRUMHELLER","AB",51.46727,-112.71149,24900,79,1915,2020,TRUE,"Continuous","WATER SURVEY OF CANADA (DOE) (CANADA)"
"05CE002",169,76,0,"Low","South Saskatchewan",11,"KNEEHILLS CREEK NEAR DRUMHELLER","AB",51.46946,-112.97827,2430,75,1921,2019,FALSE,"Seasonal","WATER SURVEY OF CANADA (DOE) (CANADA)"
"05CE005",158,81,6,"Low","South Saskatchewan",11,"ROSEBUD RIVER AT REDLAND","AB",51.29354,-113.0113,3570,70,1951,2020,TRUE,"Seasonal","WATER SURVEY OF CANADA (DOE) (CANADA)"
"05CE006",139,101,5,"Low","South Saskatchewan",11,"ROSEBUD RIVER BELOW CARSTAIRS CREEK","AB",51.41583,-113.72778,753,64,1957,2020,FALSE,"Seasonal","WATER SURVEY OF CANADA (DOE) (CANADA)"
"05CE007",187,56,2,"Low","South Saskatchewan",11,"THREEHILLS CREEK NEAR CARBON","AB",51.56446,-113.07342,1080,55,1965,2020,TRUE,"Seasonal","WATER SURVEY OF CANADA (DOE) (CANADA)"
"05CE010",39,204,2,"Normal","South Saskatchewan",11,"RAY CREEK NEAR INNISFAIL","AB",52.00117,-113.59972,44.4,47,1967,2019,FALSE,"Seasonal","WATER SURVEY OF CANADA (DOE) (CANADA)"
"05CE011",36,199,10,"Normal","South Saskatchewan",11,"RENWICK CREEK NEAR THREE HILLS","AB",51.71784,-113.36112,58.9,46,1967,2019,FALSE,"Seasonal","WATER SURVEY OF CANADA (DOE) (CANADA)"
"05CE018",72,158,15,"Normal","South Saskatchewan",11,"THREEHILLS CREEK BELOW RAY CREEK","AB",51.99747,-113.56856,199,48,1971,2019,FALSE,"Seasonal","WATER SURVEY OF CANADA (DOE) (CANADA)"
