"Station","Low","Normal","High","Flow_Type","PEARSEDA","PERSEDA_CODE","StationName","Prov","Latitude","Longitude","DrainageArea","Years","From","To","Reg.","OperSched","Operator"
"01AD002",62,174,129,"Normal","Saint John - St. Croix",23,"SAINT JOHN RIVER AT FORT KENT","ME",47.25806,-68.59583,14700,93,1926,2018,FALSE,"Continuous","UNITED STATES GEOLOGICAL SURVEY"
"01AD003",43,209,113,"Normal","Saint John - St. Croix",23,"ST. FRANCIS RIVER AT OUTLET OF GLASIER LAKE","NB",47.20661,-68.95694,1350,68,1951,2018,FALSE,"Continuous","WATER SURVEY OF CANADA (DOE) (CANADA)"
"01AE001",25,191,149,"Normal","Saint John - St. Croix",23,"FISH RIVER NEAR FORT KENT","ME",47.2375,-68.58278,2260,37,1981,2018,FALSE,"Continuous","UNITED STATES GEOLOGICAL SURVEY"
"01AF002",39,197,129,"Normal","Saint John - St. Croix",23,"SAINT JOHN RIVER AT GRAND FALLS","NB",47.03889,-67.73972,21900,90,1930,2019,TRUE,"Continuous","WATER SURVEY OF CANADA (DOE) (CANADA)"
"01AF007",85,187,93,"Normal","Saint John - St. Croix",23,"GRANDE RIVIERE AT VIOLETTE BRIDGE","NB",47.24697,-67.92128,339,43,1977,2019,FALSE,"Continuous","WATER SURVEY OF CANADA (DOE) (CANADA)"
"01AG003",60,166,139,"Normal","Saint John - St. Croix",23,"AROOSTOOK RIVER NEAR TINKER","NB",46.81636,-67.75197,6060,44,1975,2018,TRUE,"Continuous","WATER SURVEY OF CANADA (DOE) (CANADA)"
"01AH002",94,114,157,"High","Saint John - St. Croix",23,"TOBIQUE RIVER AT RILEY BROOK","NB",47.17303,-67.21081,2230,66,1954,2019,TRUE,"Continuous","WATER SURVEY OF CANADA (DOE) (CANADA)"
"01AJ003",121,142,102,"Normal","Saint John - St. Croix",23,"MEDUXNEKEAG RIVER NEAR BELLEVILLE","NB",46.21622,-67.72794,1210,53,1967,2019,FALSE,"Continuous","WATER SURVEY OF CANADA (DOE) (CANADA)"
"01AJ004",84,189,92,"Normal","Saint John - St. Croix",23,"BIG PRESQUE ISLE STREAM AT TRACEY MILLS","NB",46.43836,-67.73844,484,53,1967,2019,FALSE,"Continuous","WATER SURVEY OF CANADA (DOE) (CANADA)"
"01AJ010",109,159,97,"Normal","Saint John - St. Croix",23,"BECAGUIMEC STREAM AT COLDSTREAM","NB",46.34089,-67.46511,350,46,1973,2018,FALSE,"Continuous","WATER SURVEY OF CANADA (DOE) (CANADA)"
"01AK001",128,160,77,"Normal","Saint John - St. Croix",23,"SHOGOMOC STREAM NEAR TRANS CANADA HIGHWAY","NB",45.94353,-67.32036,234,100,1918,2018,FALSE,"Continuous","WATER SURVEY OF CANADA (DOE) (CANADA)"
"01AK006",78,199,88,"Normal","Saint John - St. Croix",23,"MIDDLE BRANCH NASHWAAKSIS STREAM AT SANDWITH'S FARM","NB",46.08281,-66.73303,5.7,53,1966,2018,FALSE,"Continuous","WATER SURVEY OF CANADA (DOE) (CANADA)"
"01AK007",82,178,105,"Normal","Saint John - St. Croix",23,"NACKAWIC STREAM NEAR TEMPERANCE VALE","NB",46.04878,-67.23961,240,52,1967,2018,FALSE,"Continuous","WATER SURVEY OF CANADA (DOE) (CANADA)"
"01AL002",88,182,95,"Normal","Saint John - St. Croix",23,"NASHWAAK RIVER AT DURHAM BRIDGE","NB",46.12592,-66.61131,1450,58,1962,2019,FALSE,"Continuous","WATER SURVEY OF CANADA (DOE) (CANADA)"
"01AL004",134,140,91,"Normal","Saint John - St. Croix",23,"NARROWS MOUNTAIN BROOK NEAR NARROWS MOUNTAIN","NB",46.27717,-67.02139,3.89,47,1972,2018,FALSE,"Continuous","WATER SURVEY OF CANADA (DOE) (CANADA)"
"01AM001",147,153,65,"Normal","Saint John - St. Croix",23,"NORTH BRANCH OROMOCTO RIVER AT TRACY","NB",45.67378,-66.68289,557,57,1962,2018,FALSE,"Continuous","WATER SURVEY OF CANADA (DOE) (CANADA)"
"01AN002",119,188,58,"Normal","Saint John - St. Croix",23,"SALMON RIVER AT CASTAWAY","NB",46.29072,-65.72275,1050,45,1974,2018,FALSE,"Continuous","WATER SURVEY OF CANADA (DOE) (CANADA)"
"01AP002",138,169,58,"Normal","Saint John - St. Croix",23,"CANAAN RIVER AT EAST CANAAN","NB",46.07236,-65.36639,668,75,1925,2019,FALSE,"Continuous","WATER SURVEY OF CANADA (DOE) (CANADA)"
"01AP004",138,159,68,"Normal","Saint John - St. Croix",23,"KENNEBECASIS RIVER AT APOHAQUI","NB",45.70139,-65.60169,1100,59,1961,2019,FALSE,"Continuous","WATER SURVEY OF CANADA (DOE) (CANADA)"
"01AQ001",144,164,57,"Normal","Saint John - St. Croix",23,"LEPREAU RIVER AT LEPREAU","NB",45.16978,-66.46828,239,104,1916,2019,FALSE,"Continuous","WATER SURVEY OF CANADA (DOE) (CANADA)"
"01AQ002",161,144,60,"Low","Saint John - St. Croix",23,"MAGAGUADAVIC RIVER AT ELMCROFT","NB",45.27333,-66.80667,1420,94,1917,2019,TRUE,"Continuous","WATER SURVEY OF CANADA (DOE) (CANADA)"
"01AR004",62,243,60,"Normal","Saint John - St. Croix",23,"ST. CROIX RIVER AT VANCEBORO","ME",45.56889,-67.42972,1080,92,1928,2019,TRUE,"Continuous","UNITED STATES GEOLOGICAL SURVEY"
"01AR005",169,138,58,"Low","Saint John - St. Croix",23,"ST. CROIX RIVER AT BARING","ME",45.13667,-67.31806,3550,45,1975,2019,TRUE,"Continuous","UNITED STATES GEOLOGICAL SURVEY"
"01AR006",103,209,53,"Normal","Saint John - St. Croix",23,"DENNIS STREAM NEAR ST. STEPHEN","NB",45.20903,-67.26215,115,54,1966,2019,TRUE,"Continuous","WATER SURVEY OF CANADA (DOE) (CANADA)"
"01AR011",24,281,60,"Normal","Saint John - St. Croix",23,"FOREST CITY STREAM BELOW FOREST CITY DAM","ME",45.66417,-67.73356,357,46,1975,2020,TRUE,"Continuous","WATER SURVEY OF CANADA (DOE) (CANADA)"
"01BC001",80,160,125,"Normal","Maritime Coastal",24,"RESTIGOUCHE RIVER BELOW KEDGWICK RIVER","NB",47.66708,-67.48308,3160,58,1962,2019,FALSE,"Continuous","WATER SURVEY OF CANADA (DOE) (CANADA)"
"01BD008",10,145,155,"High","Maritime Coastal",24,"MATAPEDIA (RIVIERE) PRES DE AMQUI","QC",48.49167,-67.45,558,34,1982,2019,FALSE,"Continuous","MINISTERE DE L'ENVIRONNEMENT DU QUEBEC"
"01BE001",49,162,154,"Normal","Maritime Coastal",24,"UPSALQUITCH RIVER AT UPSALQUITCH","NB",47.83247,-66.88708,2270,93,1918,2019,FALSE,"Continuous","WATER SURVEY OF CANADA (DOE) (CANADA)"
"01BG005",20,222,123,"Normal","Maritime Coastal",24,"CASCAPEDIA (RIVIERE) EN AVAL DU RUISSEAU BERRY","QC",48.62833,-66.16806,1680,43,1978,2020,FALSE,"Continuous","MINISTERE DE L'ENVIRONNEMENT DU QUEBEC"
"01BG009",2,219,144,"Normal","Maritime Coastal",24,"BONAVENTURE (RIVIERE) EN AMONT DU RUISSEAU CREUX","QC",48.18611,-65.55861,1910,39,1982,2020,FALSE,"Continuous","MINISTERE DE L'ENVIRONNEMENT DU QUEBEC"
"01BJ003",80,182,103,"Normal","Maritime Coastal",24,"JACQUET RIVER NEAR DURHAM CENTRE","NB",47.89381,-66.02522,510,55,1964,2018,FALSE,"Continuous","WATER SURVEY OF CANADA (DOE) (CANADA)"
"01BJ007",83,157,125,"Normal","Maritime Coastal",24,"RESTIGOUCHE RIVER ABOVE RAFTING GROUND BROOK","NB",47.90867,-66.94806,7740,52,1968,2019,FALSE,"Continuous","WATER SURVEY OF CANADA (DOE) (CANADA)"
"01BJ010",66,183,116,"Normal","Maritime Coastal",24,"MIDDLE RIVER NEAR BATHURST","NB",47.60839,-65.72181,217,38,1981,2018,FALSE,"Continuous","WATER SURVEY OF CANADA (DOE) (CANADA)"
"01BJ012",41,228,96,"Normal","Maritime Coastal",24,"EEL RIVER NEAR DUNDEE","NB",47.98789,-66.49061,43.2,35,1984,2018,FALSE,"Continuous","WATER SURVEY OF CANADA (DOE) (CANADA)"
"01BL002",107,164,94,"Normal","Maritime Coastal",24,"RIVIERE CARAQUET AT BURNSVILLE","NB",47.70561,-65.15539,173,50,1969,2018,FALSE,"Continuous","WATER SURVEY OF CANADA (DOE) (CANADA)"
"01BL003",108,168,89,"Normal","Maritime Coastal",24,"BIG TRACADIE RIVER AT MURCHY BRIDGE CROSSING","NB",47.43578,-65.10606,383,49,1970,2018,FALSE,"Continuous","WATER SURVEY OF CANADA (DOE) (CANADA)"
"01BO001",79,187,99,"Normal","Maritime Coastal",24,"SOUTHWEST MIRAMICHI RIVER AT BLACKVILLE","NB",46.736,-65.82561,5050,77,1918,2019,FALSE,"Continuous","WATER SURVEY OF CANADA (DOE) (CANADA)"
"01BP001",51,199,115,"Normal","Maritime Coastal",24,"LITTLE SOUTHWEST MIRAMICHI RIVER AT LYTTLETON","NB",46.93597,-65.90739,1340,69,1951,2019,FALSE,"Continuous","WATER SURVEY OF CANADA (DOE) (CANADA)"
"01BQ001",60,182,123,"Normal","Maritime Coastal",24,"NORTHWEST MIRAMICHI RIVER AT TROUT BROOK","NB",47.09475,-65.8365,948,59,1961,2019,FALSE,"Continuous","WATER SURVEY OF CANADA (DOE) (CANADA)"
"01BS001",110,178,77,"Normal","Maritime Coastal",24,"COAL BRANCH RIVER AT BEERSVILLE","NB",46.44394,-65.06494,166,56,1964,2019,FALSE,"Continuous","WATER SURVEY OF CANADA (DOE) (CANADA)"
"01BU002",148,164,53,"Normal","Maritime Coastal",24,"PETITCODIAC RIVER NEAR PETITCODIAC","NB",45.94639,-65.16819,391,59,1961,2019,FALSE,"Continuous","WATER SURVEY OF CANADA (DOE) (CANADA)"
"01BV006",174,129,62,"Low","Maritime Coastal",24,"POINT WOLFE RIVER AT FUNDY NATIONAL PARK","NB",45.55856,-65.01597,130,56,1964,2019,FALSE,"Continuous","WATER SURVEY OF CANADA (DOE) (CANADA)"
"01CA003",87,210,68,"Normal","Maritime Coastal",24,"CARRUTHERS BROOK NEAR ST. ANTHONY","PE",46.74411,-64.187,46.8,59,1961,2019,FALSE,"Continuous","WATER SURVEY OF CANADA (DOE) (CANADA)"
"01CB002",136,187,42,"Normal","Maritime Coastal",24,"DUNK RIVER AT WALL ROAD","PE",46.34586,-63.63333,114,59,1961,2019,TRUE,"Continuous","WATER SURVEY OF CANADA (DOE) (CANADA)"
"01CB004",121,172,72,"Normal","Maritime Coastal",24,"WILMOT RIVER NEAR WILMOT VALLEY","PE",46.39331,-63.65939,45.4,48,1972,2019,TRUE,"Continuous","WATER SURVEY OF CANADA (DOE) (CANADA)"
"01CC002",131,181,53,"Normal","Maritime Coastal",24,"WINTER RIVER NEAR SUFFOLK","PE",46.33206,-63.06547,37.5,53,1967,2019,TRUE,"Continuous","WATER SURVEY OF CANADA (DOE) (CANADA)"
"01DC005",151,164,50,"Normal","Maritime Coastal",24,"ANNAPOLIS RIVER AT WILMOT","NS",44.94919,-65.02939,546,57,1963,2019,TRUE,"Continuous","WATER SURVEY OF CANADA (DOE) (CANADA)"
"01DG003",121,172,72,"Normal","Maritime Coastal",24,"BEAVERBANK RIVER NEAR KINSAC","NS",44.85111,-63.66389,96.9,99,1921,2019,FALSE,"Continuous","WATER SURVEY OF CANADA (DOE) (CANADA)"
"01DL001",181,126,58,"Low","Maritime Coastal",24,"KELLEY RIVER (MILL CREEK) AT EIGHT MILE FORD","NS",45.58681,-64.45069,63.2,50,1969,2019,FALSE,"Continuous","WATER SURVEY OF CANADA (DOE) (CANADA)"
"01DP004",106,179,80,"Normal","Maritime Coastal",24,"MIDDLE RIVER OF PICTOU AT ROCKLIN","NS",45.49739,-62.78019,92.2,55,1965,2019,FALSE,"Continuous","WATER SURVEY OF CANADA (DOE) (CANADA)"
"01DR001",16,250,99,"Normal","Maritime Coastal",24,"SOUTH RIVER AT ST. ANDREWS","NS",45.55972,-61.90364,177,72,1917,2019,FALSE,"Continuous","WATER SURVEY OF CANADA (DOE) (CANADA)"
"01EC001",168,153,44,"Low","Maritime Coastal",24,"ROSEWAY RIVER AT LOWER OHIO","NS",43.83736,-65.36911,495,105,1915,2019,FALSE,"Continuous","WATER SURVEY OF CANADA (DOE) (CANADA)"
"01ED005",210,104,51,"Low","Maritime Coastal",24,"MERSEY RIVER BELOW GEORGE LAKE","NS",44.33314,-65.20508,723,47,1968,2019,FALSE,"Continuous","WATER SURVEY OF CANADA (DOE) (CANADA)"
"01ED007",209,112,44,"Low","Maritime Coastal",24,"MERSEY RIVER BELOW MILL FALLS","NS",44.43678,-65.22186,295,52,1968,2019,FALSE,"Continuous","WATER SURVEY OF CANADA (DOE) (CANADA)"
"01EE005",189,135,41,"Low","Maritime Coastal",24,"MOOSE PIT BROOK AT TUPPER LAKE","NS",44.46183,-65.04778,17.7,39,1981,2019,FALSE,"Continuous","WATER SURVEY OF CANADA (DOE) (CANADA)"
"01EF001",189,133,43,"Low","Maritime Coastal",24,"LAHAVE RIVER AT WEST NORTHFIELD","NS",44.44744,-64.59119,1250,105,1915,2019,FALSE,"Continuous","WATER SURVEY OF CANADA (DOE) (CANADA)"
"01EJ001",129,179,57,"Normal","Maritime Coastal",24,"SACKVILLE RIVER AT BEDFORD","NS",44.73153,-63.66044,146,51,1916,2019,FALSE,"Continuous","WATER SURVEY OF CANADA (DOE) (CANADA)"
"01EJ004",143,156,66,"Normal","Maritime Coastal",24,"LITTLE SACKVILLE RIVER AT MIDDLE SACKVILLE","NS",44.76447,-63.6875,13.1,40,1980,2019,FALSE,"Continuous","WATER SURVEY OF CANADA (DOE) (CANADA)"
"01EO001",70,215,80,"Normal","Maritime Coastal",24,"ST. MARYS RIVER AT STILLWATER","NS",45.17439,-61.97992,1350,105,1915,2019,FALSE,"Continuous","WATER SURVEY OF CANADA (DOE) (CANADA)"
"01FA001",53,184,128,"Normal","Maritime Coastal",24,"RIVER INHABITANTS AT GLENORA","NS",45.72025,-61.28611,193,55,1965,2019,FALSE,"Continuous","WATER SURVEY OF CANADA (DOE) (CANADA)"
"01FB001",75,229,61,"Normal","Maritime Coastal",24,"NORTHEAST MARGAREE RIVER AT MARGAREE VALLEY","NS",46.36897,-60.97528,368,104,1916,2019,FALSE,"Continuous","WATER SURVEY OF CANADA (DOE) (CANADA)"
"01FB003",38,240,87,"Normal","Maritime Coastal",24,"SOUTHWEST MARGAREE RIVER NEAR UPPER MARGAREE","NS",46.22311,-61.13692,357,102,1918,2019,FALSE,"Continuous","WATER SURVEY OF CANADA (DOE) (CANADA)"
"01FC002",88,193,84,"Normal","Maritime Coastal",24,"CHETICAMP RIVER ABOVE ROBERT BROOK","NS",46.64158,-60.94611,190,61,1958,2019,TRUE,"Continuous","WATER SURVEY OF CANADA (DOE) (CANADA)"
"01FJ002",66,201,98,"Normal","Maritime Coastal",24,"MACASKILLS BROOK NEAR BIRCH GROVE","NS",46.11789,-60.00467,17.2,42,1978,2019,FALSE,"Continuous","WATER SURVEY OF CANADA (DOE) (CANADA)"
"02AB006",133,127,105,"Low","Great Lakes",19,"KAMINISTIQUIA RIVER AT KAMINISTIQUIA","ON",48.53231,-89.595,6470,94,1926,2019,TRUE,"Continuous","WATER SURVEY OF CANADA (DOE) (CANADA)"
"02AB008",60,131,174,"High","Great Lakes",19,"NEEBING RIVER NEAR THUNDER BAY","ON",48.38339,-89.30656,187,67,1953,2019,FALSE,"Continuous","WATER SURVEY OF CANADA (DOE) (CANADA)"
"02AB017",50,148,167,"High","Great Lakes",19,"WHITEFISH RIVER AT NOLALU","ON",48.29211,-89.80986,226,40,1980,2019,FALSE,"Continuous","WATER SURVEY OF CANADA (DOE) (CANADA)"
"02AC001",78,105,182,"High","Great Lakes",19,"WOLF RIVER AT HIGHWAY NO. 17","ON",48.82169,-88.53461,726,49,1971,2020,FALSE,"Continuous","WATER SURVEY OF CANADA (DOE) (CANADA)"
"02AC002",103,166,96,"Normal","Great Lakes",19,"BLACK STURGEON RIVER AT HIGHWAY NO. 17","ON",48.90422,-88.37686,2980,49,1971,2019,FALSE,"Continuous","WATER SURVEY OF CANADA (DOE) (CANADA)"
"02AD010",150,102,113,"Low","Great Lakes",19,"BLACKWATER RIVER AT BEARDMORE","ON",49.59761,-87.96544,652,49,1971,2019,FALSE,"Continuous","WATER SURVEY OF CANADA (DOE) (CANADA)"
"02BA003",182,73,110,"Low","Great Lakes",19,"LITTLE PIC RIVER NEAR COLDWELL","ON",48.84911,-86.60722,1320,49,1972,2020,FALSE,"Continuous","WATER SURVEY OF CANADA (DOE) (CANADA)"
"02BB003",181,79,105,"Low","Great Lakes",19,"PIC RIVER NEAR MARATHON","ON",48.77408,-86.29661,4220,51,1970,2020,FALSE,"Continuous","WATER SURVEY OF CANADA (DOE) (CANADA)"
"02BB004",70,167,128,"Normal","Great Lakes",19,"CEDAR CREEK NEAR HEMLO","ON",48.70542,-85.90794,210,37,1984,2020,TRUE,"Continuous","WATER SURVEY OF CANADA (DOE) (CANADA)"
"02BD002",84,116,165,"High","Great Lakes",19,"MICHIPICOTEN RIVER AT SCOTT FALLS","ON",47.91083,-84.74333,5310,100,1920,2019,TRUE,"Continuous","GREAT LAKES POWER COMPANY LIMITED"
"02BE002",101,103,161,"High","Great Lakes",19,"MONTREAL RIVER NEAR MONTREAL RIVER HARBOUR","ON",47.21389,-84.61944,2880,85,1935,2019,TRUE,"Continuous","GREAT LAKES POWER COMPANY LIMITED"
"02BF001",73,172,120,"Normal","Great Lakes",19,"BATCHAWANA RIVER NEAR BATCHAWANA","ON",47.00353,-84.51556,1230,54,1967,2020,FALSE,"Continuous","WATER SURVEY OF CANADA (DOE) (CANADA)"
"02BF002",57,181,127,"Normal","Great Lakes",19,"GOULAIS RIVER NEAR SEARCHMONT","ON",46.86094,-83.97181,1140,54,1967,2020,FALSE,"Continuous","WATER SURVEY OF CANADA (DOE) (CANADA)"
"02BF004",101,188,76,"Normal","Great Lakes",19,"BIG CARP RIVER NEAR SAULT STE. MARIE","ON",46.51589,-84.46518,51,42,1979,2020,FALSE,"Continuous","WATER SURVEY OF CANADA (DOE) (CANADA)"
"02BF005",64,181,120,"Normal","Great Lakes",19,"NORBERG CREEK (SITE A) ABOVE BATCHAWANA RIVER","ON",47.06253,-84.43072,10.4,37,1980,2016,FALSE,"Continuous","WATER SURVEY OF CANADA (DOE) (CANADA)"
"02BF006",84,177,104,"Normal","Great Lakes",19,"NORBERG CREEK (SITE B) AT OUTLET OF TURKEY LAKE","ON",47.05053,-84.41278,8.03,38,1979,2016,FALSE,"Continuous","WATER SURVEY OF CANADA (DOE) (CANADA)"
"02BF007",86,174,105,"Normal","Great Lakes",19,"NORBERG CREEK (SITE C) AT OUTLET OF LITTLE TURKEY LAKE","ON",47.04472,-84.41025,5.05,36,1981,2016,FALSE,"Continuous","WATER SURVEY OF CANADA (DOE) (CANADA)"
"02BF008",52,204,109,"Normal","Great Lakes",19,"NORBERG CREEK (SITE D) BELOW WISHART LAKE","ON",47.04625,-84.40319,4.08,37,1980,2016,FALSE,"Continuous","WATER SURVEY OF CANADA (DOE) (CANADA)"
"02BF009",63,212,90,"Normal","Great Lakes",19,"NORBERG CREEK (SITE E) BELOW BATCHAWANA LAKE","ON",47.05778,-84.4,2.04,36,1981,2016,FALSE,"Continuous","WATER SURVEY OF CANADA (DOE) (CANADA)"
"02CA002",120,173,72,"Normal","Great Lakes",19,"ROOT RIVER AT SAULT STE. MARIE","ON",46.56286,-84.28169,109,50,1971,2020,FALSE,"Continuous","WATER SURVEY OF CANADA (DOE) (CANADA)"
"02CB003",16,192,157,"Normal","Great Lakes",19,"AUBINADONG RIVER ABOVE SESABIC CREEK","ON",46.96842,-83.41686,1450,41,1980,2020,FALSE,"Continuous","WATER SURVEY OF CANADA (DOE) (CANADA)"
"02CC005",125,153,87,"Normal","Great Lakes",19,"LITTLE WHITE RIVER NEAR BELLINGHAM","ON",46.39395,-83.28298,1970,79,1942,2020,TRUE,"Continuous","WATER SURVEY OF CANADA (DOE) (CANADA)"
"02CC010",123,149,93,"Normal","Great Lakes",19,"LITTLE WHITE RIVER BELOW BOLAND RIVER","ON",46.58114,-82.968,1210,41,1980,2020,TRUE,"Continuous","WATER SURVEY OF CANADA (DOE) (CANADA)"
"02CD001",139,133,93,"Low","Great Lakes",19,"SERPENT RIVER AT HIGHWAY NO. 17","ON",46.21078,-82.51242,1350,55,1966,2020,TRUE,"Continuous","WATER SURVEY OF CANADA (DOE) (CANADA)"
"02CD006",190,91,84,"Low","Great Lakes",19,"SERPENT RIVER ABOVE QUIRKE LAKE","ON",46.51158,-82.60028,157,53,1967,2019,FALSE,"Continuous","WATER SURVEY OF CANADA (DOE) (CANADA)"
"02CE002",104,169,92,"Normal","Great Lakes",19,"AUX SABLES RIVER AT MASSEY","ON",46.21494,-82.07081,1340,106,1915,2020,TRUE,"Continuous","WATER SURVEY OF CANADA (DOE) (CANADA)"
"02CF007",175,94,96,"Low","Great Lakes",19,"WHITSON RIVER AT CHELMSFORD","ON",46.58336,-81.19911,277,61,1960,2020,FALSE,"Continuous","WATER SURVEY OF CANADA (DOE) (CANADA)"
"02CF008",109,137,119,"Normal","Great Lakes",19,"WHITSON RIVER AT VAL CARON","ON",46.61017,-81.03297,179,61,1960,2020,FALSE,"Continuous","WATER SURVEY OF CANADA (DOE) (CANADA)"
"02CF010",49,209,107,"Normal","Great Lakes",19,"ONAPING RIVER NEAR LEVACK","ON",46.5995,-81.38197,1650,41,1976,2019,TRUE,"Continuous","WATER SURVEY OF CANADA (DOE) (CANADA)"
"02CF012",114,144,107,"Normal","Great Lakes",19,"JUNCTION CREEK BELOW KELLEY LAKE","ON",46.42731,-81.09844,199,43,1977,2019,FALSE,"Continuous","WATER SURVEY OF CANADA (DOE) (CANADA)"
"02CF013",100,166,99,"Normal","Great Lakes",19,"MOOSE CREEK AT LEVACK","ON",46.63594,-81.39147,40.6,39,1981,2019,TRUE,"Continuous","WATER SURVEY OF CANADA (DOE) (CANADA)"
"02DB005",110,139,116,"Normal","Great Lakes",19,"WANAPITEI RIVER NEAR WANUP","ON",46.34567,-80.83956,3150,69,1952,2020,TRUE,"Continuous","WATER SURVEY OF CANADA (DOE) (CANADA)"
"02DB007",84,171,110,"Normal","Great Lakes",19,"CONISTON CREEK ABOVE WANAPITEI RIVER","ON",46.47528,-80.82153,59,41,1980,2020,FALSE,"Continuous","WATER SURVEY OF CANADA (DOE) (CANADA)"
"02DC004",119,146,100,"Normal","Great Lakes",19,"STURGEON RIVER NEAR GLEN AFTON","ON",46.63717,-80.26325,3010,63,1941,2019,TRUE,"Continuous","WATER SURVEY OF CANADA (DOE) (CANADA)"
"02DC012",138,119,108,"Low","Great Lakes",19,"STURGEON RIVER AT UPPER GOOSE FALLS","ON",46.97025,-80.45878,1200,34,1986,2019,FALSE,"Continuous","WATER SURVEY OF CANADA (DOE) (CANADA)"
"02DD010",151,94,120,"Low","Great Lakes",19,"FRENCH RIVER AT DRY PINE BAY","ON",46.06858,-80.61164,13900,60,1961,2020,TRUE,"Continuous","WATER SURVEY OF CANADA (DOE) (CANADA)"
"02DD013",181,95,89,"Low","Great Lakes",19,"LA VASE RIVER AT NORTH BAY","ON",46.26344,-79.39511,68.6,46,1974,2019,FALSE,"Continuous","WATER SURVEY OF CANADA (DOE) (CANADA)"
"02DD014",84,222,59,"Normal","Great Lakes",19,"CHIPPEWA CREEK AT NORTH BAY","ON",46.31178,-79.44836,35.6,46,1974,2019,FALSE,"Continuous","WATER SURVEY OF CANADA (DOE) (CANADA)"
"02DD015",145,151,69,"Normal","Great Lakes",19,"COMMANDA CREEK NEAR COMMANDA","ON",45.94919,-79.60658,104,47,1974,2020,FALSE,"Continuous","WATER SURVEY OF CANADA (DOE) (CANADA)"
"02EA005",77,186,102,"Normal","Great Lakes",19,"NORTH MAGNETAWAN RIVER NEAR BURK'S FALLS","ON",45.66947,-79.37919,329,106,1915,2020,FALSE,"Continuous","WATER SURVEY OF CANADA (DOE) (CANADA)"
"02EA010",89,189,87,"Normal","Great Lakes",19,"NORTH MAGNETAWAN RIVER ABOVE PICKEREL LAKE","ON",45.70377,-79.30879,155,53,1968,2020,FALSE,"Continuous","WATER SURVEY OF CANADA (DOE) (CANADA)"
"02EA011",100,193,72,"Normal","Great Lakes",19,"MAGNETAWAN RIVER NEAR BRITT","ON",45.77306,-80.48233,2840,48,1973,2020,TRUE,"Continuous","WATER SURVEY OF CANADA (DOE) (CANADA)"
"02EB004",91,150,124,"Normal","Great Lakes",19,"NORTH BRANCH MUSKOKA RIVER AT PORT SYDNEY","ON",45.21286,-79.27528,1410,105,1915,2019,TRUE,"Continuous","WATER SURVEY OF CANADA (DOE) (CANADA)"
"02EB006",79,146,140,"Normal","Great Lakes",19,"MUSKOKA RIVER BELOW BALA","ON",45.0225,-79.67833,4770,82,1937,2018,TRUE,"Continuous","WATER SURVEY OF CANADA (DOE) (CANADA)"
"02EB011",68,189,108,"Normal","Great Lakes",19,"MOON RIVER AT HIGHWAY NO. 400","ON",45.06506,-79.79014,4790,55,1965,2019,TRUE,"Continuous","WATER SURVEY OF CANADA (DOE) (CANADA)"
"02EB012",76,196,93,"Normal","Great Lakes",19,"MUSQUASH RIVER AT HIGHWAY NO. 400","ON",45.02253,-79.77681,NA,55,1965,2019,TRUE,"Continuous","WATER SURVEY OF CANADA (DOE) (CANADA)"
"02EB013",124,150,91,"Normal","Great Lakes",19,"BIG EAST RIVER NEAR HUNTSVILLE","ON",45.39272,-79.15994,610,48,1973,2020,TRUE,"Continuous","WATER SURVEY OF CANADA (DOE) (CANADA)"
"02EB014",102,135,128,"Normal","Great Lakes",19,"OXTONGUE RIVER NEAR DWIGHT","ON",45.31197,-78.98939,605,40,1981,2020,FALSE,"Continuous","WATER SURVEY OF CANADA (DOE) (CANADA)"
"02EC002",139,135,91,"Low","Great Lakes",19,"BLACK RIVER NEAR WASHAGO","ON",44.71367,-79.28161,1510,106,1915,2020,FALSE,"Continuous","WATER SURVEY OF CANADA (DOE) (CANADA)"
"02EC003",199,114,52,"Low","Great Lakes",19,"SEVERN RIVER AT SWIFT RAPIDS","ON",44.85694,-79.54167,5850,66,1953,2018,TRUE,"Continuous","ORILLIA LIGHT AND POWER"
"02EC009",88,212,65,"Normal","Great Lakes",19,"HOLLAND RIVER EAST BRANCH AT HOLLAND LANDING","ON",44.09492,-79.48956,176,56,1965,2020,FALSE,"Continuous","WATER SURVEY OF CANADA (DOE) (CANADA)"
"02EC010",143,183,39,"Normal","Great Lakes",19,"SCHOMBERG RIVER NEAR SCHOMBERG","ON",44.01214,-79.68564,51.3,51,1966,2019,FALSE,"Continuous","WATER SURVEY OF CANADA (DOE) (CANADA)"
"02ED003",172,153,40,"Low","Great Lakes",19,"NOTTAWASAGA RIVER NEAR BAXTER","ON",44.24981,-79.82142,1230,73,1947,2019,FALSE,"Continuous","WATER SURVEY OF CANADA (DOE) (CANADA)"
"02ED007",120,183,62,"Normal","Great Lakes",19,"COLDWATER RIVER AT COLDWATER","ON",44.70719,-79.64375,168,55,1965,2019,FALSE,"Continuous","WATER SURVEY OF CANADA (DOE) (CANADA)"
"02ED014",69,228,68,"Normal","Great Lakes",19,"PINE RIVER NEAR EVERETT","ON",44.20003,-79.96,190,48,1967,2016,FALSE,"Continuous","WATER SURVEY OF CANADA (DOE) (CANADA)"
"02FA001",87,156,122,"Normal","Great Lakes",19,"SAUBLE RIVER AT SAUBLE FALLS","ON",44.67753,-81.25606,913,64,1957,2020,TRUE,"Continuous","WATER SURVEY OF CANADA (DOE) (CANADA)"
"02FA002",147,169,49,"Normal","Great Lakes",19,"STOKES RIVER NEAR FERNDALE","ON",45.03697,-81.33636,50.5,45,1976,2020,FALSE,"Continuous","WATER SURVEY OF CANADA (DOE) (CANADA)"
"02FB007",129,149,87,"Normal","Great Lakes",19,"SYDENHAM RIVER NEAR OWEN SOUND","ON",44.52225,-80.93019,183,88,1915,2020,FALSE,"Continuous","WATER SURVEY OF CANADA (DOE) (CANADA)"
"02FB009",173,131,61,"Low","Great Lakes",19,"BEAVER RIVER NEAR CLARKSBURG","ON",44.51986,-80.46778,587,64,1957,2020,TRUE,"Continuous","WATER SURVEY OF CANADA (DOE) (CANADA)"
"02FB010",108,162,95,"Normal","Great Lakes",19,"BIGHEAD RIVER NEAR MEAFORD","ON",44.57017,-80.6485,298,64,1957,2020,FALSE,"Continuous","WATER SURVEY OF CANADA (DOE) (CANADA)"
"02FC001",128,159,78,"Normal","Great Lakes",19,"SAUGEEN RIVER NEAR PORT ELGIN","ON",44.45647,-81.32644,3950,107,1914,2020,TRUE,"Continuous","WATER SURVEY OF CANADA (DOE) (CANADA)"
"02FC002",154,138,73,"Low","Great Lakes",19,"SAUGEEN RIVER NEAR WALKERTON","ON",44.12047,-81.11533,2140,107,1914,2020,TRUE,"Continuous","WATER SURVEY OF CANADA (DOE) (CANADA)"
"02FC015",157,148,60,"Low","Great Lakes",19,"TEESWATER RIVER NEAR PAISLEY","ON",44.26831,-81.26919,670,46,1972,2020,TRUE,"Continuous","WATER SURVEY OF CANADA (DOE) (CANADA)"
"02FE003",104,198,63,"Normal","Great Lakes",19,"MIDDLE MAITLAND RIVER NEAR LISTOWEL","ON",43.72723,-80.97267,73.4,68,1953,2020,TRUE,"Continuous","WATER SURVEY OF CANADA (DOE) (CANADA)"
"02FE005",174,122,69,"Low","Great Lakes",19,"MAITLAND RIVER ABOVE WINGHAM","ON",43.91508,-81.26439,527,68,1953,2020,TRUE,"Continuous","WATER SURVEY OF CANADA (DOE) (CANADA)"
"02FE007",182,111,72,"Low","Great Lakes",19,"LITTLE MAITLAND RIVER AT BLUEVALE","ON",43.85439,-81.2505,340,51,1967,2020,TRUE,"Continuous","WATER SURVEY OF CANADA (DOE) (CANADA)"
"02FE009",111,190,64,"Normal","Great Lakes",19,"SOUTH MAITLAND RIVER AT SUMMERHILL","ON",43.68436,-81.54117,371,54,1967,2020,FALSE,"Continuous","WATER SURVEY OF CANADA (DOE) (CANADA)"
"02FF002",112,165,88,"Normal","Great Lakes",19,"AUSABLE RIVER NEAR SPRINGBANK","ON",43.07192,-81.65975,865,76,1945,2020,TRUE,"Continuous","WATER SURVEY OF CANADA (DOE) (CANADA)"
"02FF004",77,211,77,"Normal","Great Lakes",19,"SOUTH PARKHILL CREEK NEAR PARKHILL","ON",43.16075,-81.73183,42.7,66,1955,2020,FALSE,"Continuous","WATER SURVEY OF CANADA (DOE) (CANADA)"
"02FF007",131,167,67,"Normal","Great Lakes",19,"BAYFIELD RIVER NEAR VARNA","ON",43.55125,-81.58953,460,55,1966,2020,FALSE,"Continuous","WATER SURVEY OF CANADA (DOE) (CANADA)"
"02FF008",96,178,91,"Normal","Great Lakes",19,"PARKHILL CREEK ABOVE PARKHILL RESERVOIR","ON",43.16413,-81.63151,113,48,1973,2020,FALSE,"Continuous","WATER SURVEY OF CANADA (DOE) (CANADA)"
"02FF009",101,203,61,"Normal","Great Lakes",19,"AUSABLE RIVER NEAR EXETER","ON",43.36197,-81.50944,114,37,1984,2020,TRUE,"Continuous","WATER SURVEY OF CANADA (DOE) (CANADA)"
"02GA003",169,133,63,"Low","Great Lakes",19,"GRAND RIVER AT GALT","ON",43.35311,-80.31575,3520,108,1913,2020,TRUE,"Continuous","WATER SURVEY OF CANADA (DOE) (CANADA)"
"02GA010",149,154,62,"Normal","Great Lakes",19,"NITH RIVER NEAR CANNING","ON",43.18972,-80.45503,1030,86,1913,2020,FALSE,"Continuous","WATER SURVEY OF CANADA (DOE) (CANADA)"
"02GA014",180,130,55,"Low","Great Lakes",19,"GRAND RIVER NEAR MARSVILLE","ON",43.86172,-80.27222,663,64,1947,2020,TRUE,"Continuous","WATER SURVEY OF CANADA (DOE) (CANADA)"
"02GA015",171,152,42,"Low","Great Lakes",19,"SPEED RIVER BELOW GUELPH","ON",43.53372,-80.25222,568,71,1950,2020,TRUE,"Continuous","WATER SURVEY OF CANADA (DOE) (CANADA)"
"02GA016",162,160,43,"Low","Great Lakes",19,"GRAND RIVER BELOW SHAND DAM","ON",43.73094,-80.34094,785,69,1950,2020,TRUE,"Continuous","WATER SURVEY OF CANADA (DOE) (CANADA)"
"02GA018",132,170,63,"Normal","Great Lakes",19,"NITH RIVER AT NEW HAMBURG","ON",43.37722,-80.71081,544,70,1950,2020,FALSE,"Continuous","WATER SURVEY OF CANADA (DOE) (CANADA)"
"02GA023",156,149,60,"Low","Great Lakes",19,"CANAGAGIGUE CREEK NEAR ELMIRA","ON",43.57992,-80.50919,114,65,1956,2020,TRUE,"Continuous","WATER SURVEY OF CANADA (DOE) (CANADA)"
"02GA028",141,173,51,"Normal","Great Lakes",19,"CONESTOGO RIVER AT GLEN ALLAN","ON",43.65483,-80.70217,571,62,1959,2020,TRUE,"Continuous","WATER SURVEY OF CANADA (DOE) (CANADA)"
"02GA029",168,171,26,"Normal","Great Lakes",19,"ERAMOSA RIVER ABOVE GUELPH","ON",43.54778,-80.18203,231,59,1962,2020,TRUE,"Continuous","WATER SURVEY OF CANADA (DOE) (CANADA)"
"02GA030",42,266,57,"Normal","Great Lakes",19,"ALDER CREEK NEAR NEW DUNDEE","ON",43.37229,-80.55109,47.4,56,1965,2020,TRUE,"Continuous","WATER SURVEY OF CANADA (DOE) (CANADA)"
"02GA031",191,152,22,"Low","Great Lakes",19,"BLUE SPRINGS CREEK NEAR EDEN MILLS","ON",43.57614,-80.109,41.5,56,1965,2020,TRUE,"Continuous","WATER SURVEY OF CANADA (DOE) (CANADA)"
"02GA034",207,114,44,"Low","Great Lakes",19,"GRAND RIVER AT WEST MONTROSE","ON",43.58503,-80.48147,1170,51,1967,2020,TRUE,"Continuous","WATER SURVEY OF CANADA (DOE) (CANADA)"
"02GA038",175,127,63,"Low","Great Lakes",19,"NITH RIVER ABOVE NITHBURG","ON",43.48389,-80.835,326,49,1972,2020,FALSE,"Continuous","WATER SURVEY OF CANADA (DOE) (CANADA)"
"02GA040",157,160,48,"Normal","Great Lakes",19,"SPEED RIVER NEAR ARMSTRONG MILLS","ON",43.63861,-80.27,167,46,1973,2020,TRUE,"Continuous","WATER SURVEY OF CANADA (DOE) (CANADA)"
"02GB001",151,147,67,"Low","Great Lakes",19,"GRAND RIVER AT BRANTFORD","ON",43.13272,-80.26731,5200,85,1913,2020,TRUE,"Continuous","WATER SURVEY OF CANADA (DOE) (CANADA)"
"02GB008",184,138,43,"Low","Great Lakes",19,"WHITEMANS CREEK NEAR MOUNT VERNON","ON",43.12625,-80.38372,386,60,1961,2020,TRUE,"Continuous","WATER SURVEY OF CANADA (DOE) (CANADA)"
"02GB010",182,145,38,"Low","Great Lakes",19,"MCKENZIE CREEK NEAR CALEDONIA","ON",43.03394,-79.94981,173,60,1961,2020,TRUE,"Continuous","WATER SURVEY OF CANADA (DOE) (CANADA)"
"02GC002",129,179,57,"Normal","Great Lakes",19,"KETTLE CREEK AT ST. THOMAS","ON",42.77769,-81.214,331,68,1945,2020,FALSE,"Continuous","WATER SURVEY OF CANADA (DOE) (CANADA)"
"02GC006",197,147,21,"Low","Great Lakes",19,"BIG CREEK NEAR DELHI","ON",42.83772,-80.50989,370,66,1955,2020,TRUE,"Continuous","WATER SURVEY OF CANADA (DOE) (CANADA)"
"02GC007",200,138,27,"Low","Great Lakes",19,"BIG CREEK NEAR WALSINGHAM","ON",42.68561,-80.53847,567,66,1955,2020,TRUE,"Continuous","WATER SURVEY OF CANADA (DOE) (CANADA)"
"02GC008",274,75,16,"Low","Great Lakes",19,"LYNN RIVER AT SIMCOE","ON",42.82333,-80.28944,144,64,1957,2020,TRUE,"Continuous","WATER SURVEY OF CANADA (DOE) (CANADA)"
"02GC010",209,126,30,"Low","Great Lakes",19,"BIG OTTER CREEK AT TILLSONBURG","ON",42.85731,-80.72358,354,58,1960,2020,FALSE,"Continuous","WATER SURVEY OF CANADA (DOE) (CANADA)"
"02GC018",93,220,52,"Normal","Great Lakes",19,"CATFISH CREEK NEAR SPARTA","ON",42.74608,-81.05694,295,57,1964,2020,FALSE,"Continuous","WATER SURVEY OF CANADA (DOE) (CANADA)"
"02GC022",200,141,24,"Low","Great Lakes",19,"NANTICOKE CREEK AT NANTICOKE","ON",42.80992,-80.07617,177,51,1969,2020,TRUE,"Continuous","WATER SURVEY OF CANADA (DOE) (CANADA)"
"02GC026",178,153,34,"Low","Great Lakes",19,"BIG OTTER CREEK NEAR CALTON","ON",42.71067,-80.84081,665,46,1975,2020,TRUE,"Continuous","WATER SURVEY OF CANADA (DOE) (CANADA)"
"02GC029",129,174,62,"Normal","Great Lakes",19,"KETTLE CREEK ABOVE ST. THOMAS","ON",42.83519,-81.13472,134,36,1985,2020,FALSE,"Continuous","WATER SURVEY OF CANADA (DOE) (CANADA)"
"02GD001",136,173,56,"Normal","Great Lakes",19,"THAMES RIVER NEAR EALING","ON",42.97356,-81.20858,1340,106,1915,2020,TRUE,"Continuous","WATER SURVEY OF CANADA (DOE) (CANADA)"
"02GD004",83,237,45,"Normal","Great Lakes",19,"MIDDLE THAMES RIVER AT THAMESFORD","ON",43.05911,-80.99486,306,83,1938,2020,FALSE,"Continuous","WATER SURVEY OF CANADA (DOE) (CANADA)"
"02GD005",197,119,49,"Low","Great Lakes",19,"NORTH THAMES RIVER AT ST. MARYS","ON",43.25575,-81.14562,1080,83,1938,2020,TRUE,"Continuous","WATER SURVEY OF CANADA (DOE) (CANADA)"
"02GD008",119,176,70,"Normal","Great Lakes",19,"MEDWAY RIVER AT LONDON","ON",43.01367,-81.28044,203,76,1945,2020,TRUE,"Continuous","WATER SURVEY OF CANADA (DOE) (CANADA)"
"02GD014",126,179,60,"Normal","Great Lakes",19,"NORTH THAMES RIVER NEAR MITCHELL","ON",43.45042,-81.20678,315,68,1953,2020,TRUE,"Continuous","WATER SURVEY OF CANADA (DOE) (CANADA)"
"02GD015",185,121,59,"Low","Great Lakes",19,"NORTH THAMES RIVER NEAR THORNDALE","ON",43.14931,-81.19214,1320,68,1953,2020,TRUE,"Continuous","WATER SURVEY OF CANADA (DOE) (CANADA)"
"02GD016",132,184,49,"Normal","Great Lakes",19,"THAMES RIVER AT INGERSOLL","ON",43.04128,-80.88617,510,64,1957,2020,TRUE,"Continuous","WATER SURVEY OF CANADA (DOE) (CANADA)"
"02GD018",216,89,60,"Low","Great Lakes",19,"AVON RIVER BELOW STRATFORD","ON",43.34472,-81.11642,140,57,1964,2020,TRUE,"Continuous","WATER SURVEY OF CANADA (DOE) (CANADA)"
"02GD021",122,182,61,"Normal","Great Lakes",19,"THAMES RIVER AT INNERKIP","ON",43.21531,-80.69186,149,43,1978,2020,FALSE,"Continuous","WATER SURVEY OF CANADA (DOE) (CANADA)"
"02GE002",148,154,63,"Normal","Great Lakes",19,"THAMES RIVER AT BYRON","ON",42.9625,-81.33178,3080,92,1922,2020,TRUE,"Continuous","WATER SURVEY OF CANADA (DOE) (CANADA)"
"02GE003",145,155,65,"Normal","Great Lakes",19,"THAMES RIVER AT THAMESVILLE","ON",42.54486,-81.96727,4370,80,1938,2020,TRUE,"Continuous","WATER SURVEY OF CANADA (DOE) (CANADA)"
"02GE005",75,204,86,"Normal","Great Lakes",19,"DINGMAN CREEK BELOW LAMBETH","ON",42.93411,-81.35131,149,55,1965,2020,FALSE,"Continuous","WATER SURVEY OF CANADA (DOE) (CANADA)"
"02GG002",41,242,82,"Normal","Great Lakes",19,"SYDENHAM RIVER NEAR ALVINSTON","ON",42.83081,-81.85172,701,74,1947,2020,FALSE,"Continuous","WATER SURVEY OF CANADA (DOE) (CANADA)"
"02GG003",64,218,83,"Normal","Great Lakes",19,"SYDENHAM RIVER AT FLORENCE","ON",42.65061,-82.00839,1150,37,1984,2020,FALSE,"Continuous","WATER SURVEY OF CANADA (DOE) (CANADA)"
"02GG006",32,215,118,"Normal","Great Lakes",19,"BEAR CREEK NEAR PETROLIA","ON",42.90583,-82.11911,249,55,1966,2020,FALSE,"Continuous","WATER SURVEY OF CANADA (DOE) (CANADA)"
"02GG009",30,210,125,"Normal","Great Lakes",19,"BEAR CREEK BELOW BRIGDEN","ON",42.81203,-82.29842,536,39,1981,2019,FALSE,"Continuous","WATER SURVEY OF CANADA (DOE) (CANADA)"
"02GH002",65,212,88,"Normal","Great Lakes",19,"RUSCOM RIVER NEAR RUSCOM STATION","ON",42.2115,-82.62914,125,49,1971,2020,FALSE,"Continuous","WATER SURVEY OF CANADA (DOE) (CANADA)"
"02GH003",50,207,108,"Normal","Great Lakes",19,"CANARD RIVER NEAR LUKERVILLE","ON",42.15897,-83.01889,159,45,1976,2020,FALSE,"Continuous","WATER SURVEY OF CANADA (DOE) (CANADA)"
"02HA003",0,227,138,"Normal","Great Lakes",19,"NIAGARA RIVER AT QUEENSTON","ON",43.15694,-79.04722,686000,160,1860,2019,TRUE,"Continuous","INTERNATIONAL NIAGARA COMMITTEE"
"02HA006",218,110,37,"Low","Great Lakes",19,"TWENTY MILE CREEK AT BALLS FALLS","ON",43.13347,-79.38325,292,63,1957,2019,FALSE,"Continuous","WATER SURVEY OF CANADA (DOE) (CANADA)"
"02HA007",243,80,42,"Low","Great Lakes",19,"WELLAND RIVER BELOW CAISTOR CORNERS","ON",43.02178,-79.61802,223,63,1957,2019,TRUE,"Continuous","WATER SURVEY OF CANADA (DOE) (CANADA)"
"02HA019",73,162,130,"Normal","Great Lakes",19,"WELLAND CANAL DIVERSION FROM LAKE ERIE","ON",42.95,-79.21667,NA,35,1984,2018,TRUE,"Continuous","ST. LAWRENCE SEAWAY AUTHORITY"
"02HB001",95,232,38,"Normal","Great Lakes",19,"CREDIT RIVER NEAR CATARACT","ON",43.83586,-80.02289,209,106,1915,2020,TRUE,"Continuous","WATER SURVEY OF CANADA (DOE) (CANADA)"
"02HB004",132,166,67,"Normal","Great Lakes",19,"EAST SIXTEEN MILE CREEK NEAR OMAGH","ON",43.49917,-79.77678,193,65,1956,2020,FALSE,"Continuous","WATER SURVEY OF CANADA (DOE) (CANADA)"
"02HB005",161,152,52,"Low","Great Lakes",19,"SIXTEEN MILE CREEK AT MILTON","ON",43.51389,-79.87972,101,64,1957,2020,TRUE,"Continuous","WATER SURVEY OF CANADA (DOE) (CANADA)"
"02HB007",132,203,30,"Normal","Great Lakes",19,"SPENCER CREEK AT DUNDAS","ON",43.26542,-79.96428,158,39,1959,2020,TRUE,"Continuous","WATER SURVEY OF CANADA (DOE) (CANADA)"
"02HB008",118,203,44,"Normal","Great Lakes",19,"CREDIT RIVER WEST BRANCH AT NORVAL","ON",43.64656,-79.86628,131,61,1960,2020,TRUE,"Continuous","WATER SURVEY OF CANADA (DOE) (CANADA)"
"02HB012",218,112,35,"Low","Great Lakes",19,"GRINDSTONE CREEK NEAR ALDERSHOT","ON",43.30064,-79.869,77.9,56,1965,2020,FALSE,"Continuous","WATER SURVEY OF CANADA (DOE) (CANADA)"
"02HB013",47,201,117,"Normal","Great Lakes",19,"CREDIT RIVER NEAR ORANGEVILLE","ON",43.89127,-80.0624,60.6,54,1967,2020,TRUE,"Continuous","WATER SURVEY OF CANADA (DOE) (CANADA)"
"02HB018",163,168,34,"Normal","Great Lakes",19,"CREDIT RIVER AT BOSTON MILLS","ON",43.77358,-79.92683,415,39,1982,2020,TRUE,"Continuous","WATER SURVEY OF CANADA (DOE) (CANADA)"
"02HB020",38,289,38,"Normal","Great Lakes",19,"CREDIT RIVER ERIN BRANCH ABOVE ERIN","ON",43.77181,-80.09364,32.3,38,1983,2020,TRUE,"Continuous","WATER SURVEY OF CANADA (DOE) (CANADA)"
"02HC003",106,205,54,"Normal","Great Lakes",19,"HUMBER RIVER AT WESTON","ON",43.69894,-79.52039,802,76,1945,2020,TRUE,"Continuous","WATER SURVEY OF CANADA (DOE) (CANADA)"
"02HC009",126,195,44,"Normal","Great Lakes",19,"EAST HUMBER RIVER NEAR PINE GROVE","ON",43.79008,-79.58442,191,68,1953,2020,FALSE,"Continuous","WATER SURVEY OF CANADA (DOE) (CANADA)"
"02HC018",149,155,61,"Normal","Great Lakes",19,"LYNDE CREEK NEAR WHITBY","ON",43.8755,-78.96033,100,59,1959,2019,FALSE,"Continuous","WATER SURVEY OF CANADA (DOE) (CANADA)"
"02HC019",172,154,39,"Low","Great Lakes",19,"DUFFINS CREEK ABOVE PICKERING","ON",43.89128,-79.05928,93.5,58,1960,2019,FALSE,"Continuous","WATER SURVEY OF CANADA (DOE) (CANADA)"
"02HC022",51,243,71,"Normal","Great Lakes",19,"ROUGE RIVER NEAR MARKHAM","ON",43.85836,-79.23356,181,58,1961,2019,TRUE,"Continuous","WATER SURVEY OF CANADA (DOE) (CANADA)"
"02HC024",120,173,72,"Normal","Great Lakes",19,"DON RIVER AT TODMORDEN","ON",43.68586,-79.3615,319,58,1962,2019,TRUE,"Continuous","WATER SURVEY OF CANADA (DOE) (CANADA)"
"02HC025",129,201,35,"Normal","Great Lakes",19,"HUMBER RIVER AT ELDER MILLS","ON",43.81131,-79.62758,296,56,1962,2020,FALSE,"Continuous","WATER SURVEY OF CANADA (DOE) (CANADA)"
"02HC027",113,188,64,"Normal","Great Lakes",19,"BLACK CREEK NEAR WESTON","ON",43.67425,-79.50436,58,55,1966,2020,TRUE,"Continuous","WATER SURVEY OF CANADA (DOE) (CANADA)"
"02HC028",104,194,67,"Normal","Great Lakes",19,"LITTLE ROUGE CREEK NEAR LOCUST HILL","ON",43.90789,-79.21628,83.6,57,1963,2019,FALSE,"Continuous","WATER SURVEY OF CANADA (DOE) (CANADA)"
"02HC030",85,203,77,"Normal","Great Lakes",19,"ETOBICOKE CREEK BELOW QUEEN ELIZABETH HIGHWAY","ON",43.60175,-79.55633,205,55,1966,2020,FALSE,"Continuous","WATER SURVEY OF CANADA (DOE) (CANADA)"
"02HC031",22,264,79,"Normal","Great Lakes",19,"WEST HUMBER RIVER AT HIGHWAY NO. 7","ON",43.75836,-79.67894,142,51,1965,2019,FALSE,"Continuous","WATER SURVEY OF CANADA (DOE) (CANADA)"
"02HC033",125,157,53,"Normal","Great Lakes",19,"MIMICO CREEK AT ISLINGTON","ON",43.64736,-79.51969,67.8,55,1965,2019,FALSE,"Continuous","WATER SURVEY OF CANADA (DOE) (CANADA)"
"02HD003",150,169,46,"Normal","Great Lakes",19,"GANARASKA RIVER NEAR OSACA","ON",44.01514,-78.43747,67.3,62,1958,2019,TRUE,"Seasonal","WATER SURVEY OF CANADA (DOE) (CANADA)"
"02HD003",150,169,46,"Normal","Great Lakes",19,"GANARASKA RIVER NEAR OSACA","ON",44.01514,-78.43747,67.3,62,1958,2019,TRUE,"Continuous","WATER SURVEY OF CANADA (DOE) (CANADA)"
"02HD008",88,221,56,"Normal","Great Lakes",19,"OSHAWA CREEK AT OSHAWA","ON",43.93031,-78.89153,95.8,61,1959,2019,FALSE,"Continuous","WATER SURVEY OF CANADA (DOE) (CANADA)"
"02HD009",150,161,54,"Normal","Great Lakes",19,"WILMOT CREEK NEAR NEWCASTLE","ON",43.93022,-78.61881,80.7,52,1965,2019,FALSE,"Continuous","WATER SURVEY OF CANADA (DOE) (CANADA)"
"02HD010",121,196,48,"Normal","Great Lakes",19,"SHELTER VALLEY BROOK NEAR GRAFTON","ON",43.99188,-78.00122,63.8,55,1965,2019,TRUE,"Continuous","WATER SURVEY OF CANADA (DOE) (CANADA)"
"02HD012",164,154,47,"Low","Great Lakes",19,"GANARASKA RIVER ABOVE DALE","ON",43.99094,-78.32819,242,44,1976,2019,FALSE,"Continuous","WATER SURVEY OF CANADA (DOE) (CANADA)"
"02HE002",210,105,50,"Low","Great Lakes",19,"CONSECON CREEK AT ALLISONVILLE","ON",44.02747,-77.36694,119,52,1969,2020,TRUE,"Continuous","WATER SURVEY OF CANADA (DOE) (CANADA)"
"02HF002",78,157,130,"Normal","Great Lakes",19,"GULL RIVER AT NORLAND","ON",44.73183,-78.81806,1280,58,1962,2019,TRUE,"Continuous","WATER SURVEY OF CANADA (DOE) (CANADA)"
"02HF003",119,145,101,"Normal","Great Lakes",19,"BURNT RIVER NEAR BURNT RIVER","ON",44.70986,-78.67753,1250,58,1962,2019,TRUE,"Continuous","WATER SURVEY OF CANADA (DOE) (CANADA)"
"02HJ001",219,101,40,"Low","Great Lakes",19,"JACKSON CREEK AT PETERBOROUGH","ON",44.30278,-78.32139,116,58,1962,2019,FALSE,"Continuous","WATER SURVEY OF CANADA (DOE) (CANADA)"
"02HK003",166,126,73,"Low","Great Lakes",19,"CROWE RIVER AT MARMORA","ON",44.48157,-77.6848,1930,62,1959,2020,TRUE,"Continuous","WATER SURVEY OF CANADA (DOE) (CANADA)"
"02HK006",71,213,81,"Normal","Great Lakes",19,"BEAVER CREEK NEAR MARMORA","ON",44.53522,-77.69662,553,45,1973,2020,TRUE,"Continuous","WATER SURVEY OF CANADA (DOE) (CANADA)"
"02HK007",185,132,48,"Low","Great Lakes",19,"COLD CREEK AT ORLAND","ON",44.13475,-77.78703,161,40,1981,2020,FALSE,"Continuous","WATER SURVEY OF CANADA (DOE) (CANADA)"
"02HL001",246,65,54,"Low","Great Lakes",19,"MOIRA RIVER NEAR FOXBORO","ON",44.25373,-77.41883,2590,106,1915,2020,TRUE,"Continuous","WATER SURVEY OF CANADA (DOE) (CANADA)"
"02HL003",146,163,56,"Normal","Great Lakes",19,"BLACK RIVER NEAR ACTINOLITE","ON",44.5396,-77.36965,429,66,1955,2020,FALSE,"Continuous","WATER SURVEY OF CANADA (DOE) (CANADA)"
"02HL004",224,88,53,"Low","Great Lakes",19,"SKOOTAMATTA RIVER NEAR ACTINOLITE","ON",44.54957,-77.32813,678,66,1955,2020,FALSE,"Continuous","WATER SURVEY OF CANADA (DOE) (CANADA)"
"02HL005",153,140,72,"Low","Great Lakes",19,"MOIRA RIVER NEAR DELORO","ON",44.49973,-77.61836,297,56,1965,2020,FALSE,"Continuous","WATER SURVEY OF CANADA (DOE) (CANADA)"
"02HM002",202,85,78,"Low","Great Lakes",19,"DEPOT CREEK AT BELLROCK","ON",44.47192,-76.76236,181,64,1957,2020,TRUE,"Continuous","WATER SURVEY OF CANADA (DOE) (CANADA)"
"02HM003",224,83,58,"Low","Great Lakes",19,"SALMON RIVER NEAR SHANNONVILLE","ON",44.20741,-77.20938,907,63,1958,2020,TRUE,"Continuous","WATER SURVEY OF CANADA (DOE) (CANADA)"
"02HM004",127,189,49,"Normal","Great Lakes",19,"WILTON CREEK NEAR NAPANEE","ON",44.23943,-76.84922,105,56,1965,2020,FALSE,"Continuous","WATER SURVEY OF CANADA (DOE) (CANADA)"
"02HM005",145,149,71,"Normal","Great Lakes",19,"COLLINS CREEK NEAR KINGSTON","ON",44.25656,-76.61256,160,52,1969,2020,FALSE,"Continuous","WATER SURVEY OF CANADA (DOE) (CANADA)"
"02HM006",159,147,59,"Low","Great Lakes",19,"MILLHAVEN CREEK NEAR MILLHAVEN","ON",44.2264,-76.75909,144,53,1968,2020,TRUE,"Continuous","WATER SURVEY OF CANADA (DOE) (CANADA)"
"02HM007",221,67,77,"Low","Great Lakes",19,"NAPANEE RIVER AT CAMDEN EAST","ON",44.33468,-76.83889,700,47,1974,2020,TRUE,"Continuous","WATER SURVEY OF CANADA (DOE) (CANADA)"
"02JB009",91,102,172,"High","Ottawa",20,"OUTAOUAIS (RIVIERE DES) A LA SORTIE DU LAC GRANET","QC",47.8425,-77.54889,10300,44,1977,2020,TRUE,"Continuous","MINISTERE DE L'ENVIRONNEMENT DU QUEBEC"
"02JB013",45,190,130,"Normal","Ottawa",20,"KINOJEVIS (RIVIERE) A 0,3 KM EN AMONT DU PONT-ROUTE A CLÉRICY","QC",48.36667,-78.85333,2590,56,1965,2020,FALSE,"Continuous","MINISTERE DE L'ENVIRONNEMENT DU QUEBEC"
"02JC008",33,222,110,"Normal","Ottawa",20,"BLANCHE RIVER ABOVE ENGLEHART","ON",47.88914,-79.87931,1780,52,1968,2019,FALSE,"Continuous","WATER SURVEY OF CANADA (DOE) (CANADA)"
"02KB001",79,174,112,"Normal","Ottawa",20,"PETAWAWA RIVER NEAR PETAWAWA","ON",45.88619,-77.31531,4120,106,1915,2020,TRUE,"Continuous","WATER SURVEY OF CANADA (DOE) (CANADA)"
"02KC009",38,235,92,"Normal","Ottawa",20,"BONNECHERE RIVER NEAR CASTLEFORD","ON",45.49647,-76.56461,2380,99,1921,2019,TRUE,"Continuous","WATER SURVEY OF CANADA (DOE) (CANADA)"
"02KD004",138,160,67,"Normal","Ottawa",20,"MADAWASKA RIVER AT PALMER RAPIDS","ON",45.32808,-77.5155,5800,91,1930,2020,TRUE,"Continuous","WATER SURVEY OF CANADA (DOE) (CANADA)"
"02KF001",228,62,75,"Low","Ottawa",20,"MISSISSIPPI RIVER AT FERGUSONS FALLS","ON",45.05328,-76.28608,2660,43,1915,2019,TRUE,"Continuous","WATER SURVEY OF CANADA (DOE) (CANADA)"
"02KF005",66,176,123,"Normal","Ottawa",20,"OTTAWA RIVER AT BRITANNIA","ON",45.35125,-75.82666,90900,61,1960,2020,TRUE,"Continuous","WATER SURVEY OF CANADA (DOE) (CANADA)"
"02KF006",188,99,78,"Low","Ottawa",20,"MISSISSIPPI RIVER AT APPLETON","ON",45.17633,-76.12347,2940,103,1918,2020,TRUE,"Continuous","WATER SURVEY OF CANADA (DOE) (CANADA)"
"02KF010",209,81,75,"Low","Ottawa",20,"CLYDE RIVER NEAR LANARK","ON",45.04583,-76.40089,618,51,1970,2020,TRUE,"Continuous","WATER SURVEY OF CANADA (DOE) (CANADA)"
"02KF011",99,173,93,"Normal","Ottawa",20,"CARP RIVER NEAR KINBURN","ON",45.41758,-76.19867,258,49,1971,2019,FALSE,"Continuous","WATER SURVEY OF CANADA (DOE) (CANADA)"
"02KF012",218,77,70,"Low","Ottawa",20,"INDIAN RIVER NEAR BLAKENEY","ON",45.24544,-76.26033,212,46,1971,2019,TRUE,"Continuous","WATER SURVEY OF CANADA (DOE) (CANADA)"
"02KF013",207,84,74,"Low","Ottawa",20,"CLYDE RIVER AT GORDON RAPIDS","ON",45.134,-76.62994,291,49,1971,2019,TRUE,"Continuous","WATER SURVEY OF CANADA (DOE) (CANADA)"
"02KJ004",142,117,106,"Low","Ottawa",20,"DUMOINE (RIVIERE) A LA SORTIE DU LAC ROBINSON","QC",46.34583,-77.81556,3760,56,1965,2020,TRUE,"Continuous","MINISTERE DE L'ENVIRONNEMENT DU QUEBEC"
"02LA004",190,131,44,"Low","Ottawa",20,"RIDEAU RIVER AT OTTAWA","ON",45.3815,-75.69697,3810,88,1933,2020,TRUE,"Continuous","WATER SURVEY OF CANADA (DOE) (CANADA)"
"02LA006",168,146,51,"Low","Ottawa",20,"KEMPTVILLE CREEK NEAR KEMPTVILLE","ON",44.99425,-75.66228,411,52,1969,2020,TRUE,"Continuous","WATER SURVEY OF CANADA (DOE) (CANADA)"
"02LA007",147,159,59,"Normal","Ottawa",20,"JOCK RIVER NEAR RICHMOND","ON",45.24942,-75.79061,526,52,1969,2020,FALSE,"Continuous","WATER SURVEY OF CANADA (DOE) (CANADA)"
"02LB005",142,155,68,"Normal","Ottawa",20,"SOUTH NATION RIVER NEAR PLANTAGENET SPRINGS","ON",45.51706,-74.97822,3807,106,1915,2020,FALSE,"Continuous","WATER SURVEY OF CANADA (DOE) (CANADA)"
"02LB006",107,203,55,"Normal","Ottawa",20,"CASTOR RIVER AT RUSSELL","ON",45.2625,-75.34378,439,72,1948,2020,FALSE,"Continuous","WATER SURVEY OF CANADA (DOE) (CANADA)"
"02LB007",124,176,65,"Normal","Ottawa",20,"SOUTH NATION RIVER AT SPENCERVILLE","ON",44.84225,-75.54442,246,73,1948,2020,FALSE,"Continuous","WATER SURVEY OF CANADA (DOE) (CANADA)"
"02LB008",116,174,75,"Normal","Ottawa",20,"BEAR BROOK NEAR BOURGET","ON",45.426,-75.15322,448,65,1949,2020,FALSE,"Continuous","WATER SURVEY OF CANADA (DOE) (CANADA)"
"02LC008",74,164,127,"Normal","Ottawa",20,"NORD (RIVIERE DU) A 4,8 KM EN AMONT DU PONT DU C.N. A SAINT-JEROME","QC",45.79306,-74.01278,1170,91,1930,2020,TRUE,"Continuous","MINISTERE DE L'ENVIRONNEMENT DU QUEBEC"
"02LC021",77,166,122,"Normal","Ottawa",20,"NORD (RIVIERE DU) PRES DE SAINT-AGATHE","QC",46.04583,-74.25278,311,50,1971,2020,TRUE,"Continuous","MINISTERE DE L'ENVIRONNEMENT DU QUEBEC"
"02LC027",102,130,115,"Normal","Ottawa",20,"DONCASTER (RIVIERE) AU LAC ELEVE","QC",46.09583,-74.12194,109,45,1974,2020,FALSE,"Continuous","MINISTERE DE L'ENVIRONNEMENT DU QUEBEC"
"02LC029",59,194,112,"Normal","Ottawa",20,"ROUGE (RIVIERE) EN AMONT DE LA CHUTE MCNEIL","QC",45.73639,-74.68972,5460,57,1964,2020,TRUE,"Continuous","MINISTERE DE L'ENVIRONNEMENT DU QUEBEC"
"02LC043",42,186,137,"Normal","Ottawa",20,"SAINT-LOUIS (RUISSEAU) À 0,3 KM DE LA RIVIÈRE DU DIABLE","QC",46.37472,-74.50333,39.9,53,1968,2020,FALSE,"Continuous","MINISTERE DE L'ENVIRONNEMENT DU QUEBEC"
"02LD005",78,172,115,"Normal","Ottawa",20,"PETITE NATION (RIVIERE DE LA) AU PONT À 1,6 KM EN AMONT DE RIPON","QC",45.79167,-75.09139,1330,53,1968,2020,FALSE,"Continuous","MINISTERE DE L'ENVIRONNEMENT DU QUEBEC"
"02LE013",0,231,134,"Normal","Ottawa",20,"MITCHINAMECUS (RIVIERE) À LA TÊTE DE LA CHUTE RASCAS","QC",47.18444,-75.14361,1050,44,1977,2020,TRUE,"Continuous","MINISTERE DE L'ENVIRONNEMENT DU QUEBEC"
"02LG005",66,131,149,"High","Ottawa",20,"GATINEAU (RIVIERE) AUX RAPIDES CEIZUR","QC",47.08361,-75.75361,6840,47,1974,2020,FALSE,"Continuous","MINISTERE DE L'ENVIRONNEMENT DU QUEBEC"
"02MC001",151,150,64,"Low","St. Lawrence",21,"RAISIN RIVER NEAR WILLIAMSTOWN","ON",45.15547,-74.63814,404,61,1960,2020,FALSE,"Continuous","WATER SURVEY OF CANADA (DOE) (CANADA)"
"02MC026",128,163,74,"Normal","St. Lawrence",21,"RIVIERE BEAUDETTE NEAR GLEN NEVIS","ON",45.27328,-74.49386,124,38,1983,2020,FALSE,"Continuous","WATER SURVEY OF CANADA (DOE) (CANADA)"
"02ND003",19,180,166,"Normal","St. Lawrence",21,"VERMILLON (RIVIERE) EN AVAL DE LA RIVIERE DES PRAIRIES","QC",47.67639,-73.04278,2640,39,1982,2020,TRUE,"Continuous","MINISTERE DE L'ENVIRONNEMENT DU QUEBEC"
"02NE011",21,217,127,"Normal","St. Lawrence",21,"CROCHE (RIVIERE) À 2,6 KM EN AVAL DU RUISSEAU CHANGY","QC",47.76722,-72.73667,1570,52,1965,2020,FALSE,"Continuous","MINISTERE DE L'ENVIRONNEMENT DU QUEBEC"
"02NF003",16,185,164,"Normal","St. Lawrence",21,"MATAWIN (RIVIERE) A SAINT-MICHEL-DES-SAINTS","QC",46.68583,-73.91417,1390,90,1931,2020,FALSE,"Continuous","MINISTERE DE L'ENVIRONNEMENT DU QUEBEC"
"02OA003",53,191,121,"Normal","St. Lawrence",21,"MILLE ILES (RIVIERE DES) A BOIS-DES-FILION","QC",45.66294,-73.75216,NA,108,1913,2020,TRUE,"Continuous","WATER SURVEY OF CANADA (DOE) (CANADA)"
"02OA016",58,241,66,"Normal","St. Lawrence",21,"SAINT-LAURENT (FLEUVE) A LASALLE","QC",45.41501,-73.62316,NA,66,1955,2020,TRUE,"Continuous","WATER SURVEY OF CANADA (DOE) (CANADA)"
"02OA054",117,176,72,"Normal","St. Lawrence",21,"CHATEAUGUAY (RIVIERE) À 2 KM EN AMONT DU PONT-ROUTE 132","QC",45.33194,-73.76194,2490,51,1970,2020,TRUE,"Continuous","MINISTERE DE L'ENVIRONNEMENT DU QUEBEC"
"02OA057",103,193,69,"Normal","St. Lawrence",21,"ANGLAIS (RIVIERE DES) À 1,1 KM EN AVAL DU PONT-ROUTE À TRÈS-SAINT-SACREMENT","QC",45.175,-73.845,643,48,1973,2020,FALSE,"Continuous","MINISTERE DE L'ENVIRONNEMENT DU QUEBEC"
"02OB008",59,196,110,"Normal","St. Lawrence",21,"L'ASSOMPTION (RIVIERE) AU PONT-ROUTE 158 À JOLIETTE","QC",46.01028,-73.4275,1340,51,1970,2020,TRUE,"Continuous","MINISTERE DE L'ENVIRONNEMENT DU QUEBEC"
"02OB017",73,157,135,"Normal","St. Lawrence",21,"OUAREAU (RIVIERE) AUX CHUTES DORWIN","QC",46.03,-73.70528,1270,55,1966,2020,TRUE,"Continuous","MINISTERE DE L'ENVIRONNEMENT DU QUEBEC"
"02OB037",51,202,112,"Normal","St. Lawrence",21,"ACHIGAN (RIVIERE DE L') A L'EPIPHANIE","QC",45.84639,-73.49306,647,42,1979,2020,FALSE,"Continuous","MINISTERE DE L'ENVIRONNEMENT DU QUEBEC"
"02OC002",38,187,140,"Normal","St. Lawrence",21,"MASKINONGE (RIVIERE) AU PONT DU C.N. PRÈS DE SAINTE-URSULE","QC",46.30111,-73.09667,1030,90,1925,2020,TRUE,"Continuous","MINISTERE DE L'ENVIRONNEMENT DU QUEBEC"
"02OC004",21,178,166,"Normal","St. Lawrence",21,"LOUP (RIVIERE DU) À 0,3 KM EN AVAL DU RUISSEAU CARUFEL","QC",46.60056,-73.18639,774,56,1965,2020,TRUE,"Continuous","MINISTERE DE L'ENVIRONNEMENT DU QUEBEC"
"02OD001",101,177,87,"Normal","St. Lawrence",21,"NICOLET SUD-OUEST (RIVIERE) PRES D'ASBESTOS","QC",45.79167,-71.96917,549,92,1929,2020,TRUE,"Continuous","MINISTERE DE L'ENVIRONNEMENT DU QUEBEC"
"02OD010",61,168,136,"Normal","St. Lawrence",21,"BULSTRODE (RIVIERE) A SAINT-VALERE-1","QC",46.07,-71.97889,342,46,1975,2020,TRUE,"Continuous","MINISTERE DE L'ENVIRONNEMENT DU QUEBEC"
"02OE001",118,173,74,"Normal","St. Lawrence",21,"SAINT-FRANCOIS (RIVIERE) À 0,6 KM EN AVAL DU BARRAGE JULES-ALLARD","QC",45.94083,-71.28111,1230,53,1968,2020,TRUE,"Continuous","MINISTERE DE L'ENVIRONNEMENT DU QUEBEC"
"02OE019",53,212,100,"Normal","St. Lawrence",21,"MASSAWAPPI (RIVIERE) À 1,6 KM EN AVAL DU LAC MASSAWIPPI","QC",45.28417,-71.9625,610,69,1952,2020,TRUE,"Continuous","MINISTERE DE L'ENVIRONNEMENT DU QUEBEC"
"02OE022",94,191,80,"Normal","St. Lawrence",21,"COATICOOK (RIVIERE) À 1,3 KM EN AVAL DU PONT-ROUTE 143 À WATERVILLE","QC",45.285,-71.89944,521,62,1959,2020,TRUE,"Continuous","MINISTERE DE L'ENVIRONNEMENT DU QUEBEC"
"02OE027",81,200,84,"Normal","St. Lawrence",21,"EATON (RIVIERE) PRES DE LA RIVIERE SAINT-FRANCOIS-3","QC",45.46722,-71.65528,642,68,1953,2020,FALSE,"Continuous","MINISTERE DE L'ENVIRONNEMENT DU QUEBEC"
"02OE032",99,180,86,"Normal","St. Lawrence",21,"SAUMON (RIVIERE AU) À 1,9 KM EN AMONT DE LA MOFFAT","QC",45.58056,-71.38667,738,47,1974,2020,FALSE,"Continuous","MINISTERE DE L'ENVIRONNEMENT DU QUEBEC"
"02OE062",120,151,94,"Normal","St. Lawrence",21,"SAINT-FRANCOIS (RIVIERE) À 0,5 KM EN AVAL DE LA CENTRALE WEEDON","QC",45.65861,-71.46861,2930,42,1979,2020,TRUE,"Continuous","MINISTERE DE L'ENVIRONNEMENT DU QUEBEC"
"02OG002",93,176,96,"Normal","St. Lawrence",21,"YAMASKA (RIVIERE) À FARNHAM","QC",45.2825,-72.96583,1230,83,1929,2020,TRUE,"Continuous","MINISTERE DE L'ENVIRONNEMENT DU QUEBEC"
"02OG007",139,119,107,"Low","St. Lawrence",21,"YAMASKA NORD (RIVIERE) A VAL-SHEFFORD","QC",45.41583,-72.62222,139,52,1968,2020,FALSE,"Continuous","MINISTERE DE L'ENVIRONNEMENT DU QUEBEC"
"02OG019",99,173,93,"Normal","St. Lawrence",21,"NOIRE (RIVIERE) À 7,6 KM DE LA YAMASKA","QC",45.49972,-72.90639,1490,56,1965,2020,TRUE,"Continuous","MINISTERE DE L'ENVIRONNEMENT DU QUEBEC"
"02OG026",54,173,138,"Normal","St. Lawrence",21,"DAVID (RIVIERE) AU PONT-ROUTE À SAINT-DAVID","QC",45.95361,-72.85944,316,52,1969,2020,FALSE,"Continuous","MINISTERE DE L'ENVIRONNEMENT DU QUEBEC"
"02OG042",92,172,101,"Normal","St. Lawrence",21,"YAMASKA NORD (RIVIERE) À 2,4 KM EN AMONT DE L'AUTOROUTE 10","QC",45.36444,-72.78444,235,38,1983,2020,TRUE,"Continuous","MINISTERE DE L'ENVIRONNEMENT DU QUEBEC"
"02OJ007",254,76,35,"Low","St. Lawrence",21,"RICHELIEU (RIVIERE) AUX RAPIDES FRYERS","QC",45.39847,-73.25844,22000,84,1937,2020,FALSE,"Continuous","WATER SURVEY OF CANADA (DOE) (CANADA)"
"02OJ024",89,184,92,"Normal","St. Lawrence",21,"HURONS (RIVIERE DES) EN AVAL DU RUISSEAU SAINT-LOUIS-2","QC",45.49028,-73.18694,309,48,1973,2020,FALSE,"Continuous","MINISTERE DE L'ENVIRONNEMENT DU QUEBEC"
"02OJ026",63,179,69,"Normal","St. Lawrence",21,"L'ACADIE (RIVIERE) PRES DE L'AUTOROUTE NO. 10","QC",45.38972,-73.37083,345,42,1979,2020,FALSE,"Continuous","MINISTERE DE L'ENVIRONNEMENT DU QUEBEC"
"02PA007",29,166,170,"High","St. Lawrence",21,"BATISCAN (RIVIERE) À 3,4 KM EN AVAL DE LA RIVIÈRE DES ENVIES","QC",46.58361,-72.40472,4480,54,1967,2020,FALSE,"Continuous","MINISTERE DE L'ENVIRONNEMENT DU QUEBEC"
"02PB006",41,173,151,"Normal","St. Lawrence",21,"SAINTE-ANNE (RIVIERE) (BRAS DU NORD DE LA) EN AMONT","QC",46.97167,-71.85444,642,56,1965,2020,FALSE,"Continuous","MINISTERE DE L'ENVIRONNEMENT DU QUEBEC"
"02PB019",81,136,148,"High","St. Lawrence",21,"SAINTE-ANNE (RIVIERE) À 1,3 KM EN AVAL DU BARRAGE À CHUTE-PANET","QC",46.85278,-71.8775,1550,56,1965,2020,TRUE,"Continuous","MINISTERE DE L'ENVIRONNEMENT DU QUEBEC"
"02PC002",59,151,155,"High","St. Lawrence",21,"JACQUES-CARTIER (RIVIERE) EN AVAL DU PONT DU CHEMIN GOSFORD","QC",46.88972,-71.52722,2010,92,1923,2020,TRUE,"Continuous","MINISTERE DE L'ENVIRONNEMENT DU QUEBEC"
"02PC010",69,164,132,"Normal","St. Lawrence",21,"ONTARITZI (RIVIÈRE) À 0,2 KM EN AVAL DU BARRAGE DU LAC SAINT-JOSEPH","QC",46.8675,-71.63944,213,45,1976,2020,TRUE,"Continuous","MINISTERE DE L'ENVIRONNEMENT DU QUEBEC"
"02PD002",39,188,138,"Normal","St. Lawrence",21,"MONTMORENCY (RIVIERE) À 0,6 KM EN AVAL DU BARRAGE DES MARCHES NATURELLES","QC",46.89417,-71.15139,1100,73,1924,2020,FALSE,"Continuous","MINISTERE DE L'ENVIRONNEMENT DU QUEBEC"
"02PD010",66,164,135,"Normal","St. Lawrence",21,"SAINT-CHARLES (RIVIERE) À 0,8 KM  EN AMONT DE LA RIVIERE LORETTE","QC",46.81417,-71.3175,357,52,1969,2020,TRUE,"Continuous","MINISTERE DE L'ENVIRONNEMENT DU QUEBEC"
"02PD012",0,167,198,"High","St. Lawrence",21,"EAUX VOLEES (RUISSEAU DES) EN AMONT DU CHEMIN DU BELVÉDÈRE","QC",47.27167,-71.16139,3.94,56,1965,2020,FALSE,"Continuous","MINISTERE DE L'ENVIRONNEMENT DU QUEBEC"
"02PD013",21,227,117,"Normal","St. Lawrence",21,"EAUX VOLEES (RUISSEAU DES) PRES DE LA RIVIERE MONTMORENCY","QC",47.27083,-71.13778,9.17,54,1967,2020,FALSE,"Continuous","MINISTERE DE L'ENVIRONNEMENT DU QUEBEC"
"02PE014",51,166,148,"Normal","St. Lawrence",21,"DAUPHINE (RIVIERE) À L' ÎLE D'ORLÉANS","QC",46.96667,-70.85639,24.9,51,1970,2020,FALSE,"Continuous","MINISTERE DE L'ENVIRONNEMENT DU QUEBEC"
"02PF001",48,216,101,"Normal","St. Lawrence",21,"MALBAIE (RIVIERE) A CLERMONT","QC",47.69417,-70.21694,1700,54,1967,2020,TRUE,"Continuous","MINISTERE DE L'ENVIRONNEMENT DU QUEBEC"
"02PG003",78,175,112,"Normal","St. Lawrence",21,"FOURCHUE (RIVIERE) À 0,2 KM EN AVAL DU BARRAGE MORIN","QC",47.65083,-69.51278,261,75,1943,2020,TRUE,"Continuous","MINISTERE DE L'ENVIRONNEMENT DU QUEBEC"
"02PG006",59,198,108,"Normal","St. Lawrence",21,"LOUP (RIVIERE DU) A SAINT-JOSEPH-DE-KAMOURASKA","QC",47.6125,-69.64583,525,43,1978,2020,FALSE,"Continuous","MINISTERE DE L'ENVIRONNEMENT DU QUEBEC"
"02PG022",51,204,110,"Normal","St. Lawrence",21,"OUELLE (RIVIERE) PRES DE SAINT-GABRIEL-DE-KAMOURASKA","QC",47.38111,-69.95806,795,39,1982,2020,FALSE,"Continuous","MINISTERE DE L'ENVIRONNEMENT DU QUEBEC"
"02PH010",90,160,115,"Normal","St. Lawrence",21,"DU SUD (RIVIÈRE) À 1,0 KM EN AMONT DU PONT-ROUTE À ARTHURVILLE","QC",46.82056,-70.75694,821,55,1966,2020,TRUE,"Continuous","MINISTERE DE L'ENVIRONNEMENT DU QUEBEC"
"02PH011",63,195,107,"Normal","St. Lawrence",21,"ETCHEMIN (RIVIERE) AU PONT-ROUTE 173 À SAINT-HENRI-DE-LÉVIS","QC",46.69111,-71.06889,1160,41,1980,2020,TRUE,"Continuous","MINISTERE DE L'ENVIRONNEMENT DU QUEBEC"
"02PJ030",74,183,108,"Normal","St. Lawrence",21,"FAMINE (RIVIERE) A SAINT-GEORGES","QC",46.16417,-70.63972,691,57,1964,2020,FALSE,"Continuous","MINISTERE DE L'ENVIRONNEMENT DU QUEBEC"
"02PL005",87,139,139,"High","St. Lawrence",21,"BECANCOUR (RIVIERE) À 2,1 KM EN AMONT DE LA RIVIÈRE PALMER","QC",46.30611,-71.45139,919,55,1966,2020,FALSE,"Continuous","MINISTERE DE L'ENVIRONNEMENT DU QUEBEC"
"02QB001",25,212,128,"Normal","North Shore - Gaspe",22,"MATANE (RIVIERE) À 8,5 KM EN AMONT DU PONT-ROUTE 132 À MATANE","QC",48.77472,-67.54194,1650,95,1926,2020,TRUE,"Continuous","MINISTERE DE L'ENVIRONNEMENT DU QUEBEC"
"02QB005",32,192,141,"Normal","North Shore - Gaspe",22,"BLANCHE (RIVIERE) À 3,5 KM EN AMONT DU PONT-ROUTE 132","QC",48.76667,-67.66611,208,54,1967,2020,TRUE,"Continuous","MINISTERE DE L'ENVIRONNEMENT DU QUEBEC"
"02QC009",73,171,121,"Normal","North Shore - Gaspe",22,"SAINTE-ANNE (RIVIERE) À 9,7 KM EN AMONT DU PONT-ROUTE 132","QC",49.05889,-66.48667,774,48,1973,2020,FALSE,"Continuous","MINISTERE DE L'ENVIRONNEMENT DU QUEBEC"
"02RC011",19,156,190,"High","North Shore - Gaspe",22,"PERIBONCA (PETITE RIVIERE)","QC",48.81417,-72.04778,1090,47,1974,2020,FALSE,"Continuous","MINISTERE DE L'ENVIRONNEMENT DU QUEBEC"
"02RD003",27,149,189,"High","North Shore - Gaspe",22,"MISTASSINI (RIVIERE) EN AMONT DE LA RIVIERE MISTASSIBI","QC",48.88778,-72.26361,9870,66,1953,2020,FALSE,"Continuous","MINISTERE DE L'ENVIRONNEMENT DU QUEBEC"
"02RF001",34,144,187,"High","North Shore - Gaspe",22,"ASHUAPMUSHUAN (RIVIERE) À LA TÊTE DE LA CHUTE AUX SAUMONS","QC",48.68639,-72.48806,15300,68,1953,2020,FALSE,"Continuous","MINISTERE DE L'ENVIRONNEMENT DU QUEBEC"
"02RF009",35,153,175,"High","North Shore - Gaspe",22,"SAUMONS (RIVIERE AUX) PRES DE L'EMBOUCHURE","QC",48.68361,-72.51389,585,39,1982,2020,FALSE,"Continuous","MINISTERE DE L'ENVIRONNEMENT DU QUEBEC"
"02RG005",22,145,198,"High","North Shore - Gaspe",22,"METABETCHOUANE (RIVIERE) EN AMONT DE LA CENTRALE S.R.P.C.","QC",48.375,-71.99361,2280,52,1964,2020,FALSE,"Continuous","MINISTERE DE L'ENVIRONNEMENT DU QUEBEC"
"02RG008",25,174,166,"Normal","North Shore - Gaspe",22,"OUIATCHOUANE (RIVIERE) EN AVAL DU BARRAGE DE LAC DES COMMISSAIRES","QC",48.20611,-72.23889,562,54,1966,2019,TRUE,"Continuous","MINISTERE DE L'ENVIRONNEMENT DU QUEBEC"
"02RH015",48,138,179,"High","North Shore - Gaspe",22,"CHICOUTIMI (RIVIERE) EN AVAL DU BARRAGE PORTAGE DES ROCHES","QC",48.30417,-71.19444,3390,111,1910,2020,TRUE,"Continuous","MINISTERE DE L'ENVIRONNEMENT DU QUEBEC"
"02RH027",39,175,151,"Normal","North Shore - Gaspe",22,"PIKAUBA (RIVIERE) EN AMONT DE LA RIVIERE APICA","QC",47.94111,-71.38194,495,52,1969,2020,FALSE,"Continuous","MINISTERE DE L'ENVIRONNEMENT DU QUEBEC"
"02RH035",30,123,212,"High","North Shore - Gaspe",22,"ÉCORCES (RIVIERE AUX) EN AMONT DU PONT-ROUTE 169","QC",48.18222,-71.64528,1110,50,1971,2020,FALSE,"Continuous","MINISTERE DE L'ENVIRONNEMENT DU QUEBEC"
"02RH045",38,196,131,"Normal","North Shore - Gaspe",22,"VALIN (RIVIERE) À 3,5 KM DE L'EMBOUCHURE","QC",48.48889,-70.97417,746,47,1974,2020,FALSE,"Continuous","MINISTERE DE L'ENVIRONNEMENT DU QUEBEC"
"02UA003",61,210,94,"Normal","North Shore - Gaspe",22,"GODBOUT (RIVIERE) À 1,6 KM EN AMONT DU PONT-ROUTE 138","QC",49.33056,-67.65583,1570,47,1974,2020,FALSE,"Continuous","MINISTERE DE L'ENVIRONNEMENT DU QUEBEC"
"02UC002",70,169,90,"Normal","North Shore - Gaspe",22,"MOISIE (RIVIERE) À 5,1 KM EN AMONT DU PONT DU Q.N.S.L.R.","QC",50.35028,-66.19028,19000,56,1965,2020,FALSE,"Continuous","MINISTERE DE L'ENVIRONNEMENT DU QUEBEC"
"02WB003",48,164,99,"Normal","North Shore - Gaspe",22,"NATASHQUAN (RIVIERE) À 0,6 KM EN AVAL DE LA DÉCHARGE DU LAC ALIESTE","QC",50.42722,-61.71361,15600,41,1980,2020,FALSE,"Continuous","MINISTERE DE L'ENVIRONNEMENT DU QUEBEC"
"02XA003",43,215,107,"Normal","North Shore - Gaspe",22,"LITTLE MECATINA RIVER ABOVE LAC FOURMONT","NL",52.22981,-61.31694,4540,43,1978,2020,FALSE,"Continuous","WATER SURVEY OF CANADA (DOE) (CANADA)"
"02YA002",52,194,119,"Normal","Newfoundland - Labrador",25,"BARTLETTS RIVER NEAR ST. ANTHONY","NL",51.44922,-55.64125,33.6,35,1986,2020,FALSE,"Continuous","WATER SURVEY OF CANADA (DOE) (CANADA)"
"02YC001",48,194,123,"Normal","Newfoundland - Labrador",25,"TORRENT RIVER AT BRISTOL'S POOL","NL",50.60747,-57.15161,624,62,1959,2020,FALSE,"Continuous","WATER SURVEY OF CANADA (DOE) (CANADA)"
"02YD002",32,222,111,"Normal","Newfoundland - Labrador",25,"NORTHEAST BROOK NEAR RODDICKTON","NL",50.92442,-56.11169,200,41,1980,2020,FALSE,"Continuous","WATER SURVEY OF CANADA (DOE) (CANADA)"
"02YE001",57,194,114,"Normal","Newfoundland - Labrador",25,"GREAVETT BROOK ABOVE PORTLAND CREEK POND","NL",50.16231,-57.57753,95.7,36,1984,2019,FALSE,"Continuous","WATER SURVEY OF CANADA (DOE) (CANADA)"
"02YG001",55,196,114,"Normal","Newfoundland - Labrador",25,"MAIN RIVER AT PARADISE POOL","NL",49.81067,-57.15942,627,34,1986,2019,FALSE,"Continuous","WATER SURVEY OF CANADA (DOE) (CANADA)"
"02YJ001",81,202,82,"Normal","Newfoundland - Labrador",25,"HARRYS RIVER BELOW HIGHWAY BRIDGE","NL",48.57583,-58.36264,640,52,1968,2019,FALSE,"Continuous","WATER SURVEY OF CANADA (DOE) (CANADA)"
"02YK002",93,198,74,"Normal","Newfoundland - Labrador",25,"LEWASEECHJEECH BROOK AT LITTLE GRAND LAKE","NL",48.62203,-57.93311,470,64,1952,2019,FALSE,"Continuous","WATER SURVEY OF CANADA (DOE) (CANADA)"
"02YK005",90,148,127,"Normal","Newfoundland - Labrador",25,"SHEFFIELD BROOK NEAR TRANS CANADA HIGHWAY","NL",49.33828,-56.66789,391,49,1972,2020,FALSE,"Continuous","WATER SURVEY OF CANADA (DOE) (CANADA)"
"02YK008",61,178,126,"Normal","Newfoundland - Labrador",25,"BOOT BROOK AT TRANS-CANADA HIGHWAY","NL",49.26667,-57.104,20.4,35,1985,2019,FALSE,"Continuous","WATER SURVEY OF CANADA (DOE) (CANADA)"
"02YL001",89,164,112,"Normal","Newfoundland - Labrador",25,"UPPER HUMBER RIVER NEAR REIDVILLE","NL",49.24292,-57.36025,2110,93,1928,2020,FALSE,"Continuous","WATER SURVEY OF CANADA (DOE) (CANADA)"
"02YL003",67,199,99,"Normal","Newfoundland - Labrador",25,"HUMBER RIVER AT HUMBER VILLAGE BRIDGE","NL",48.98286,-57.76058,7860,38,1982,2019,TRUE,"Continuous","WATER SURVEY OF CANADA (DOE) (CANADA)"
"02YL004",77,192,96,"Normal","Newfoundland - Labrador",25,"SOUTH BROOK AT PASADENA","NL",49.01228,-57.61142,58.5,37,1983,2019,FALSE,"Continuous","WATER SURVEY OF CANADA (DOE) (CANADA)"
"02YL005",81,202,82,"Normal","Newfoundland - Labrador",25,"RATTLER BROOK NEAR MCIVERS","NL",49.05831,-58.10519,17,35,1985,2019,FALSE,"Continuous","WATER SURVEY OF CANADA (DOE) (CANADA)"
"02YM003",100,163,102,"Normal","Newfoundland - Labrador",25,"SOUTH WEST BROOK NEAR BAIE VERTE","NL",49.89353,-56.22214,93.2,41,1980,2020,FALSE,"Continuous","WATER SURVEY OF CANADA (DOE) (CANADA)"
"02YN002",91,181,93,"Normal","Newfoundland - Labrador",25,"LLOYDS RIVER BELOW KING GEORGE IV LAKE","NL",48.23981,-57.82814,469,40,1981,2020,FALSE,"Continuous","WATER SURVEY OF CANADA (DOE) (CANADA)"
"02YO006",81,184,100,"Normal","Newfoundland - Labrador",25,"PETERS RIVER NEAR BOTWOOD","NL",49.10383,-55.39669,177,40,1981,2020,FALSE,"Continuous","WATER SURVEY OF CANADA (DOE) (CANADA)"
"02YO008",101,163,101,"Normal","Newfoundland - Labrador",25,"GREAT RATTLING BROOK ABOVE TOTE RIVER CONFLUENCE","NL",48.82667,-55.52869,773,37,1984,2020,FALSE,"Continuous","WATER SURVEY OF CANADA (DOE) (CANADA)"
"02YO011",138,107,94,"Low","Newfoundland - Labrador",25,"EXPLOITS RIVER BELOW NOEL PAULS BROOK","NL",48.84439,-56.26967,6300,35,1985,2019,TRUE,"Continuous","WATER SURVEY OF CANADA (DOE) (CANADA)"
"02YQ001",66,188,111,"Normal","Newfoundland - Labrador",25,"GANDER RIVER AT BIG CHUTE","NL",49.01628,-54.85067,4450,72,1949,2020,FALSE,"Continuous","WATER SURVEY OF CANADA (DOE) (CANADA)"
"02YR001",62,208,95,"Normal","Newfoundland - Labrador",25,"MIDDLE BROOK NEAR GAMBO","NL",48.80739,-54.22256,275,62,1959,2020,FALSE,"Continuous","WATER SURVEY OF CANADA (DOE) (CANADA)"
"02YR003",42,227,96,"Normal","Newfoundland - Labrador",25,"INDIAN BAY BROOK NEAR NORTHWEST ARM","NL",49.04217,-53.88567,554,40,1981,2020,FALSE,"Continuous","WATER SURVEY OF CANADA (DOE) (CANADA)"
"02YS003",90,176,99,"Normal","Newfoundland - Labrador",25,"SOUTHWEST BROOK AT TERRA NOVA NATIONAL PARK","NL",48.60772,-53.97889,36.7,53,1967,2019,FALSE,"Continuous","WATER SURVEY OF CANADA (DOE) (CANADA)"
"02YS005",62,190,113,"Normal","Newfoundland - Labrador",25,"TERRA NOVA RIVER AT GLOVERTOWN","NL",48.66275,-54.01525,2000,36,1985,2020,FALSE,"Continuous","WATER SURVEY OF CANADA (DOE) (CANADA)"
"02ZA002",67,227,71,"Normal","Newfoundland - Labrador",25,"HIGHLANDS RIVER AT TRANS-CANADA HIGHWAY","NL",48.10839,-58.78358,72,38,1982,2019,FALSE,"Continuous","WATER SURVEY OF CANADA (DOE) (CANADA)"
"02ZB001",101,169,95,"Normal","Newfoundland - Labrador",25,"ISLE AUX MORTS RIVER BELOW HIGHWAY BRIDGE","NL",47.61333,-59.00978,205,58,1962,2019,FALSE,"Continuous","WATER SURVEY OF CANADA (DOE) (CANADA)"
"02ZC002",109,153,103,"Normal","Newfoundland - Labrador",25,"GRANDY BROOK BELOW TOP POND BROOK","NL",47.85608,-57.73319,230,38,1982,2019,FALSE,"Continuous","WATER SURVEY OF CANADA (DOE) (CANADA)"
"02ZD002",61,202,102,"Normal","Newfoundland - Labrador",25,"GREY RIVER NEAR GREY RIVER","NL",47.74331,-56.934,1340,48,1969,2019,FALSE,"Continuous","WATER SURVEY OF CANADA (DOE) (CANADA)"
"02ZF001",62,210,93,"Normal","Newfoundland - Labrador",25,"BAY DU NORD RIVER AT BIG FALLS","NL",47.74683,-55.44022,1170,71,1950,2020,FALSE,"Continuous","WATER SURVEY OF CANADA (DOE) (CANADA)"
"02ZG001",123,167,75,"Normal","Newfoundland - Labrador",25,"GARNISH RIVER NEAR GARNISH","NL",47.21642,-55.33,205,63,1958,2020,FALSE,"Continuous","WATER SURVEY OF CANADA (DOE) (CANADA)"
"02ZG003",114,178,73,"Normal","Newfoundland - Labrador",25,"SALMONIER RIVER NEAR LAMALINE","NL",46.87781,-55.77619,115,41,1980,2020,FALSE,"Continuous","WATER SURVEY OF CANADA (DOE) (CANADA)"
"02ZG004",113,182,70,"Normal","Newfoundland - Labrador",25,"RATTLE BROOK NEAR BOAT HARBOUR","NL",47.45003,-54.85303,42.7,40,1981,2020,FALSE,"Continuous","WATER SURVEY OF CANADA (DOE) (CANADA)"
"02ZH001",95,176,94,"Normal","Newfoundland - Labrador",25,"PIPERS HOLE RIVER AT MOTHERS BROOK","NL",47.94667,-54.28433,764,69,1952,2020,FALSE,"Continuous","WATER SURVEY OF CANADA (DOE) (CANADA)"
"02ZH002",68,194,103,"Normal","Newfoundland - Labrador",25,"COME BY CHANCE RIVER NEAR GOOBIES","NL",47.91875,-53.94867,43.3,52,1961,2019,FALSE,"Continuous","WATER SURVEY OF CANADA (DOE) (CANADA)"
"02ZJ001",87,163,115,"Normal","Newfoundland - Labrador",25,"SOUTHERN BAY RIVER NEAR SOUTHERN BAY","NL",48.38067,-53.67394,67.4,44,1976,2019,FALSE,"Continuous","WATER SURVEY OF CANADA (DOE) (CANADA)"
"02ZJ002",65,176,124,"Normal","Newfoundland - Labrador",25,"SALMON COVE RIVER NEAR CHAMPNEYS","NL",48.39592,-53.30161,73.6,37,1983,2019,FALSE,"Continuous","WATER SURVEY OF CANADA (DOE) (CANADA)"
"02ZJ003",72,159,134,"Normal","Newfoundland - Labrador",25,"SHOAL HARBOUR RIVER NEAR CLARENVILLE","NL",48.22017,-54.04964,106,34,1986,2019,FALSE,"Continuous","WATER SURVEY OF CANADA (DOE) (CANADA)"
"02ZK001",89,192,84,"Normal","Newfoundland - Labrador",25,"ROCKY RIVER NEAR COLINET","NL",47.22711,-53.56861,301,73,1948,2020,FALSE,"Continuous","WATER SURVEY OF CANADA (DOE) (CANADA)"
"02ZK002",103,194,67,"Normal","Newfoundland - Labrador",25,"NORTHEAST RIVER NEAR PLACENTIA","NL",47.27397,-53.83872,89.6,41,1979,2019,FALSE,"Continuous","WATER SURVEY OF CANADA (DOE) (CANADA)"
"02ZK003",106,196,63,"Normal","Newfoundland - Labrador",25,"LITTLE BARACHOIS RIVER NEAR PLACENTIA","NL",47.18131,-54.03892,37.2,37,1983,2019,FALSE,"Continuous","WATER SURVEY OF CANADA (DOE) (CANADA)"
"02ZK004",94,199,72,"Normal","Newfoundland - Labrador",25,"LITTLE SALMONIER RIVER NEAR NORTH HARBOUR","NL",47.12183,-53.73178,104,37,1983,2019,FALSE,"Continuous","WATER SURVEY OF CANADA (DOE) (CANADA)"
"02ZL004",91,198,76,"Normal","Newfoundland - Labrador",25,"SHEARSTOWN BROOK AT SHEARSTOWN","NL",47.58306,-53.30808,28.9,37,1983,2019,FALSE,"Continuous","WATER SURVEY OF CANADA (DOE) (CANADA)"
"02ZL005",85,172,108,"Normal","Newfoundland - Labrador",25,"BIG BROOK AT LEAD COVE","NL",48.04278,-53.08211,11.2,36,1985,2020,FALSE,"Continuous","WATER SURVEY OF CANADA (DOE) (CANADA)"
"02ZM006",88,183,94,"Normal","Newfoundland - Labrador",25,"NORTHEAST POND RIVER AT NORTHEAST POND","NL",47.63464,-52.83656,3.63,67,1953,2019,FALSE,"Continuous","WATER SURVEY OF CANADA (DOE) (CANADA)"
"02ZM008",91,194,80,"Normal","Newfoundland - Labrador",25,"WATERFORD RIVER AT KILBRIDE","NL",47.52906,-52.74506,52.7,46,1974,2020,FALSE,"Continuous","WATER SURVEY OF CANADA (DOE) (CANADA)"
"02ZM009",84,193,88,"Normal","Newfoundland - Labrador",25,"SEAL COVE BROOK NEAR CAPPAHAYDEN","NL",46.84628,-52.97258,53.6,41,1979,2019,FALSE,"Continuous","WATER SURVEY OF CANADA (DOE) (CANADA)"
"02ZM016",82,201,82,"Normal","Newfoundland - Labrador",25,"SOUTH RIVER NEAR HOLYROOD","NL",47.35467,-53.11722,17.3,37,1983,2019,FALSE,"Continuous","WATER SURVEY OF CANADA (DOE) (CANADA)"
"02ZM018",78,185,102,"Normal","Newfoundland - Labrador",25,"VIRGINIA RIVER AT PLEASANTVILLE","NL",47.58894,-52.69078,10.7,37,1984,2020,FALSE,"Continuous","WATER SURVEY OF CANADA (DOE) (CANADA)"
"02ZM020",128,146,91,"Normal","Newfoundland - Labrador",25,"LEARYS BROOK AT PRINCE PHILIP DRIVE","NL",47.56425,-52.74847,17.8,36,1985,2020,FALSE,"Continuous","WATER SURVEY OF CANADA (DOE) (CANADA)"
"02ZN002",89,171,105,"Normal","Newfoundland - Labrador",25,"ST. SHOTTS RIVER NEAR TREPASSEY","NL",46.70989,-53.48558,15.5,35,1985,2019,FALSE,"Continuous","WATER SURVEY OF CANADA (DOE) (CANADA)"
"03AB002",68,161,136,"Normal","Northern Quebec",18,"WASWANIPI (RIVIERE) A LA CHUTE ROUGE","QC",49.8575,-77.18722,31900,54,1966,2020,FALSE,"Continuous","MINISTERE DE L'ENVIRONNEMENT DU QUEBEC"
"03AC004",64,140,120,"Normal","Northern Quebec",18,"BELL (RIVIERE) EN AMONT DU LAC MATAGAMI","QC",49.75306,-77.61444,22200,59,1962,2020,FALSE,"Continuous","MINISTERE DE L'ENVIRONNEMENT DU QUEBEC"
"03BF001",25,131,170,"High","Northern Quebec",18,"PONTAX (RIVIERE) À 60,4 KM DE L'EMBOUCHURE","QC",51.53361,-78.09667,6090,45,1975,2020,FALSE,"Continuous","MINISTERE DE L'ENVIRONNEMENT DU QUEBEC"
"03ED001",0,128,190,"High","Northern Quebec",18,"BALEINE (GRANDE RIVIERE DE LA) EN AMONT DE LA RIVIERE DENYS-1","QC",55.2375,-76.98389,32500,56,1961,2020,FALSE,"Continuous","MINISTERE DE L'ENVIRONNEMENT DU QUEBEC"
"03FA003",1,182,151,"Normal","Northern Quebec",18,"LOUPS MARINS (LAC DES) DANS LE BASSIN VERSANT DE LA RIVIÈRE NASTAPOCA","QC",56.45444,-74.23139,8390,45,1974,2020,FALSE,"Continuous","MINISTERE DE L'ENVIRONNEMENT DU QUEBEC"
"03NF001",27,238,100,"Normal","Newfoundland - Labrador",25,"UGJOKTOK RIVER BELOW HARP LAKE","NL",55.23414,-61.30169,7570,42,1979,2020,FALSE,"Continuous","WATER SURVEY OF CANADA (DOE) (CANADA)"
"03OE001",68,144,97,"Normal","Newfoundland - Labrador",25,"CHURCHILL RIVER ABOVE UPPER MUSKRAT FALLS","NL",53.24831,-60.78511,92500,66,1948,2016,TRUE,"Continuous","WATER SURVEY OF CANADA (DOE) (CANADA)"
"03QC001",29,159,177,"High","Newfoundland - Labrador",25,"EAGLE RIVER ABOVE FALLS","NL",53.53428,-57.49386,10900,55,1966,2020,FALSE,"Continuous","WATER SURVEY OF CANADA (DOE) (CANADA)"
"03QC002",59,215,91,"Normal","Newfoundland - Labrador",25,"ALEXIS RIVER NEAR PORT HOPE SIMPSON","NL",52.64861,-56.87122,2310,43,1978,2020,FALSE,"Continuous","WATER SURVEY OF CANADA (DOE) (CANADA)"
"04AA004",101,81,161,"High","Northern Ontario",17,"HAYES RIVER BELOW TROUT FALLS","MB",54.85639,-95.12,9190,47,1974,2020,FALSE,"Continuous","WATER SURVEY OF CANADA (DOE) (CANADA)"
"04DA001",50,99,216,"High","Northern Ontario",17,"PIPESTONE RIVER AT KARL LAKE","ON",52.58058,-90.18669,5960,55,1966,2020,FALSE,"Continuous","WATER SURVEY OF CANADA (DOE) (CANADA)"
"04DB001",42,143,180,"High","Northern Ontario",17,"ASHEWEIG RIVER AT STRAIGHT LAKE","ON",53.71175,-87.95339,7950,51,1966,2020,FALSE,"Continuous","WATER SURVEY OF CANADA (DOE) (CANADA)"
"04DC001",12,124,174,"High","Northern Ontario",17,"WINISK RIVER BELOW ASHEWEIG RIVER TRIBUTARY","ON",54.49961,-87.22769,50000,53,1965,2020,FALSE,"Continuous","WATER SURVEY OF CANADA (DOE) (CANADA)"
"04DC002",10,188,167,"Normal","Northern Ontario",17,"SHAMATTAWA RIVER AT OUTLET OF SHAMATTAWA LAKE","ON",54.28975,-85.65153,4710,52,1966,2020,FALSE,"Continuous","WATER SURVEY OF CANADA (DOE) (CANADA)"
"04FA003",18,128,219,"High","Northern Ontario",17,"PINEIMUTA RIVER AT EYES LAKE","ON",52.30828,-88.76033,4900,51,1966,2020,FALSE,"Continuous","WATER SURVEY OF CANADA (DOE) (CANADA)"
"04FC001",7,162,196,"High","Northern Ontario",17,"ATTAWAPISKAT RIVER BELOW MUKETEI RIVER","ON",53.09131,-85.07225,36000,50,1968,2020,FALSE,"Continuous","WATER SURVEY OF CANADA (DOE) (CANADA)"
"04GA002",17,121,227,"High","Northern Ontario",17,"CAT RIVER BELOW WESLEYAN LAKE","ON",51.17378,-91.59458,5390,50,1970,2020,FALSE,"Continuous","WATER SURVEY OF CANADA (DOE) (CANADA)"
"04GB004",7,228,130,"Normal","Northern Ontario",17,"OGOKI RIVER ABOVE WHITECLAY LAKE","ON",50.86842,-88.93161,11200,49,1971,2020,FALSE,"Continuous","WATER SURVEY OF CANADA (DOE) (CANADA)"
"04HA001",54,189,76,"Normal","Northern Ontario",17,"ALBANY RIVER NEAR HAT ISLAND","ON",51.33056,-83.83333,118000,52,1964,2019,TRUE,"Continuous","WATER SURVEY OF CANADA (DOE) (CANADA)"
"04JC002",196,118,51,"Low","Northern Ontario",17,"NAGAGAMI RIVER AT HIGHWAY NO. 11","ON",49.77289,-84.53694,2180,71,1950,2020,FALSE,"Continuous","WATER SURVEY OF CANADA (DOE) (CANADA)"
"04JD005",122,201,42,"Normal","Northern Ontario",17,"PAGWACHUAN RIVER AT HIGHWAY NO. 11","ON",49.76419,-85.22619,2120,53,1968,2020,FALSE,"Continuous","WATER SURVEY OF CANADA (DOE) (CANADA)"
"04KA001",7,86,272,"High","Northern Ontario",17,"KWETABOHIGAN RIVER NEAR THE MOUTH","ON",51.16083,-80.86394,4250,53,1967,2020,FALSE,"Continuous","WATER SURVEY OF CANADA (DOE) (CANADA)"
"04LA002",67,175,123,"Normal","Northern Ontario",17,"MATTAGAMI RIVER NEAR TIMMINS","ON",48.40431,-81.44836,5570,48,1969,2020,TRUE,"Continuous","WATER SURVEY OF CANADA (DOE) (CANADA)"
"04LJ001",77,177,111,"Normal","Northern Ontario",17,"MISSINAIBI RIVER AT MATTICE","ON",49.61108,-83.26778,8570,100,1920,2019,FALSE,"Continuous","WATER SURVEY OF CANADA (DOE) (CANADA)"
"04LM001",42,261,62,"Normal","Northern Ontario",17,"MISSINAIBI RIVER BELOW WABOOSE RIVER","ON",50.58544,-82.091,22900,48,1972,2019,FALSE,"Continuous","WATER SURVEY OF CANADA (DOE) (CANADA)"
"04MF001",29,162,174,"High","Northern Ontario",17,"NORTH FRENCH RIVER NEAR THE MOUTH","ON",51.07672,-80.76408,6680,54,1966,2019,FALSE,"Continuous","WATER SURVEY OF CANADA (DOE) (CANADA)"
"04NA001",31,232,102,"Normal","Northern Quebec",18,"HARRICANA (RIVIERE) 3,1 KM EN AVAL DU PONT-ROUTE 111 A AMOS","QC",48.60056,-78.10944,3680,88,1933,2020,FALSE,"Continuous","MINISTERE DE L'ENVIRONNEMENT DU QUEBEC"
"05AA004",58,147,40,"Normal","South Saskatchewan",11,"PINCHER CREEK AT PINCHER CREEK","AB",49.4864,-113.94769,158,79,1910,2020,FALSE,"Seasonal","WATER SURVEY OF CANADA (DOE) (CANADA)"
"05AA008",129,113,123,"Low","South Saskatchewan",11,"CROWSNEST RIVER AT FRANK","AB",49.59732,-114.41064,403,82,1910,2019,FALSE,"Continuous","WATER SURVEY OF CANADA (DOE) (CANADA)"
"05AA022",72,143,150,"High","South Saskatchewan",11,"CASTLE RIVER NEAR BEAVER MINES","AB",49.48866,-114.14438,821,74,1945,2019,FALSE,"Continuous","WATER SURVEY OF CANADA (DOE) (CANADA)"
"05AA024",55,243,67,"Normal","South Saskatchewan",11,"OLDMAN RIVER NEAR BROCKET","AB",49.55781,-113.82272,4400,53,1966,2019,TRUE,"Continuous","WATER SURVEY OF CANADA (DOE) (CANADA)"
"05AA027",119,44,51,"Low","South Saskatchewan",11,"RACEHORSE CREEK NEAR THE MOUTH","AB",49.83779,-114.42059,218,54,1966,2020,FALSE,"Seasonal","WATER SURVEY OF CANADA (DOE) (CANADA)"
"05AA028",60,123,62,"Normal","South Saskatchewan",11,"CASTLE RIVER AT RANGER STATION","AB",49.39745,-114.3399,375,54,1967,2020,FALSE,"Seasonal","WATER SURVEY OF CANADA (DOE) (CANADA)"
"05AA030",134,84,26,"Low","South Saskatchewan",11,"GOLD CREEK NEAR FRANK","AB",49.60185,-114.40054,63.3,45,1975,2019,FALSE,"Seasonal","WATER SURVEY OF CANADA (DOE) (CANADA)"
"05AA909",128,61,8,"Low","South Saskatchewan",11,"TODD CREEK NEAR HIGHWAY NO.22","AB",49.76328,-114.2381,74,38,1982,2020,FALSE,"Seasonal","WATER SURVEY OF CANADA (DOE) (CANADA)"
"05AB005",38,195,12,"Normal","South Saskatchewan",11,"TROUT CREEK NEAR GRANUM","AB",49.97735,-113.68603,441,56,1908,2019,FALSE,"Seasonal","WATER SURVEY OF CANADA (DOE) (CANADA)"
"05AB013",49,192,4,"Normal","South Saskatchewan",11,"BEAVER CREEK NEAR BROCKET","AB",49.63938,-113.7953,256,59,1921,2020,FALSE,"Seasonal","WATER SURVEY OF CANADA (DOE) (CANADA)"
"05AB019",30,128,56,"Normal","South Saskatchewan",11,"LETHBRIDGE NORTHERN IRRIGATION DISTRICT CANAL ABOVE OLDMAN FLUME","AB",49.68706,-113.57692,NA,38,1930,2020,TRUE,"Seasonal","WATER SURVEY OF CANADA (DOE) (CANADA)"
"05AB021",41,300,24,"Normal","South Saskatchewan",11,"WILLOW CREEK NEAR CLARESHOLM","AB",50.01852,-113.71484,1180,76,1908,2019,TRUE,"Continuous","WATER SURVEY OF CANADA (DOE) (CANADA)"
"05AB029",36,202,7,"Normal","South Saskatchewan",11,"MEADOW CREEK NEAR THE MOUTH","AB",49.95413,-113.66354,130,53,1966,2019,FALSE,"Seasonal","WATER SURVEY OF CANADA (DOE) (CANADA)"
"05AC003",40,194,131,"Normal","South Saskatchewan",11,"LITTLE BOW RIVER AT CARMANGAY","AB",50.12765,-113.11819,2780,82,1918,2020,TRUE,"Continuous","WATER SURVEY OF CANADA (DOE) (CANADA)"
"05AC012",0,134,80,"Normal","South Saskatchewan",11,"LITTLE BOW RIVER BELOW TRAVERS DAM","AB",50.1712,-112.72277,5340,64,1957,2020,TRUE,"Seasonal","WATER SURVEY OF CANADA (DOE) (CANADA)"
"05AC017",58,122,34,"Normal","South Saskatchewan",11,"LOMOND LATERAL NEAR HEADGATE","AB",50.21455,-112.66189,NA,60,1959,2019,TRUE,"Seasonal","WATER SURVEY OF CANADA (DOE) (CANADA)"
"05AC023",0,100,84,"Normal","South Saskatchewan",11,"LITTLE BOW RIVER NEAR THE MOUTH","AB",49.89987,-112.50553,5900,48,1973,2020,TRUE,"Seasonal","WATER SURVEY OF CANADA (DOE) (CANADA)"
"05AC031",51,162,32,"Normal","South Saskatchewan",11,"MOSQUITO CREEK NEAR THE MOUTH","AB",50.25185,-113.55414,958,37,1982,2019,TRUE,"Seasonal","WATER SURVEY OF CANADA (DOE) (CANADA)"
"05AC902",55,113,16,"Normal","South Saskatchewan",11,"BOW RIVER DEVELOPMENT MAIN CANAL AT DROP NO. 3","AB",50.15694,-112.53333,NA,36,1981,2020,TRUE,"Seasonal","ALBERTA ENVIRONMENTAL PROTECTION"
"05AD007",62,222,81,"Normal","South Saskatchewan",11,"OLDMAN RIVER NEAR LETHBRIDGE","AB",49.70942,-112.86288,17000,103,1911,2020,TRUE,"Continuous","WATER SURVEY OF CANADA (DOE) (CANADA)"
"05AD013",23,170,51,"Normal","South Saskatchewan",11,"UNITED IRRIGATION DISTRICT CANAL NEAR HILL SPRING","AB",49.21804,-113.63324,NA,83,1923,2020,TRUE,"Seasonal","WATER SURVEY OF CANADA (DOE) (CANADA)"
"05AD017",20,207,17,"Normal","South Saskatchewan",11,"MOUNTAIN VIEW IRRIGATION DISTRICT CANAL","AB",49.07972,-113.68889,NA,86,1935,2020,TRUE,"Seasonal","WATER SURVEY OF CANADA (DOE) (CANADA)"
"05AD021",30,121,94,"Normal","South Saskatchewan",11,"BELLY - ST. MARY DIVERSION CANAL","AB",49.33607,-113.55406,NA,61,1959,2020,TRUE,"Seasonal","WATER SURVEY OF CANADA (DOE) (CANADA)"
"05AD027",36,115,94,"Normal","South Saskatchewan",11,"WATERTON - BELLY DIVERSION CANAL","AB",49.32703,-113.63383,NA,52,1968,2019,TRUE,"Seasonal","WATER SURVEY OF CANADA (DOE) (CANADA)"
"05AD028",15,235,115,"Normal","South Saskatchewan",11,"WATERTON RIVER NEAR GLENWOOD","AB",49.43336,-113.48478,1630,53,1966,2019,TRUE,"Continuous","WATER SURVEY OF CANADA (DOE) (CANADA)"
"05AD035",0,128,117,"Normal","South Saskatchewan",11,"PRAIRIE BLOOD COULEE NEAR LETHBRIDGE","AB",49.56628,-112.95427,214,49,1970,2019,FALSE,"Seasonal","WATER SURVEY OF CANADA (DOE) (CANADA)"
"05AD037",154,27,3,"Low","South Saskatchewan",11,"PIYAMI DRAIN NEAR PICTURE BUTTE","AB",49.83062,-112.76438,NA,49,1972,2020,TRUE,"Seasonal","WATER SURVEY OF CANADA (DOE) (CANADA)"
"05AD041",99,187,79,"Normal","South Saskatchewan",11,"BELLY RIVER NEAR GLENWOOD","AB",49.35212,-113.48044,653,36,1985,2021,TRUE,"Continuous","WATER SURVEY OF CANADA (DOE) (CANADA)"
"05AE006",17,226,122,"Normal","South Saskatchewan",11,"ST. MARY RIVER NEAR LETHBRIDGE","AB",49.57346,-112.84671,3530,108,1911,2019,TRUE,"Continuous","WATER SURVEY OF CANADA (DOE) (CANADA)"
"05AE016",2,139,73,"Normal","South Saskatchewan",11,"POTHOLE CREEK AT RUSSELL'S RANCH","AB",49.56554,-112.82741,770,87,1919,2020,TRUE,"Seasonal","WATER SURVEY OF CANADA (DOE) (CANADA)"
"05AE021",22,143,49,"Normal","South Saskatchewan",11,"MAGRATH IRRIGATION DISTRICT CANAL NEAR SPRING COULEE","AB",49.34839,-113.05515,NA,94,1927,2020,TRUE,"Seasonal","WATER SURVEY OF CANADA (DOE) (CANADA)"
"05AE026",61,145,38,"Normal","South Saskatchewan",11,"CANADIAN ST. MARY CANAL NEAR SPRING COULEE","AB",49.34363,-113.04353,NA,69,1952,2020,TRUE,"Seasonal","WATER SURVEY OF CANADA (DOE) (CANADA)"
"05AE027",27,168,170,"High","South Saskatchewan",11,"ST. MARY RIVER AT INTERNATIONAL BOUNDARY","AB",49.01206,-113.29956,1210,117,1902,2018,TRUE,"Continuous","WATER SURVEY OF CANADA (DOE) (CANADA)"
"05AE029",49,194,2,"Normal","South Saskatchewan",11,"ST. MARY CANAL AT ST. MARY CROSSING","MT",48.94703,-113.37521,NA,102,1918,2019,TRUE,"Seasonal","WATER SURVEY OF CANADA (DOE) (CANADA)"
"05AG003",97,69,18,"Low","South Saskatchewan",11,"EXPANSE COULEE NEAR THE MOUTH","AB",49.98871,-112.08224,1880,64,1957,2020,TRUE,"Seasonal","WATER SURVEY OF CANADA (DOE) (CANADA)"
"05AG006",50,231,84,"Normal","South Saskatchewan",11,"OLDMAN RIVER NEAR THE MOUTH","AB",49.91889,-111.8,27500,44,1964,2020,TRUE,"Continuous","WATER SURVEY OF CANADA (DOE) (CANADA)"
"05AG026",125,59,0,"Low","South Saskatchewan",11,"BOUNTIFUL COULEE INFLOW NEAR CRANFORD","AB",49.78561,-112.31609,43.2,41,1980,2020,TRUE,"Seasonal","WATER SURVEY OF CANADA (DOE) (CANADA)"
"05AH001",0,225,48,"Normal","South Saskatchewan",11,"BOXELDER CREEK NEAR WALSH","SK",49.96179,-109.98937,321,80,1911,2020,TRUE,"Seasonal","WATER SURVEY OF CANADA (DOE) (CANADA)"
"05AH002",2,216,55,"Normal","South Saskatchewan",11,"MACKAY CREEK AT WALSH","AB",49.94091,-110.04722,437,73,1911,2019,TRUE,"Seasonal","WATER SURVEY OF CANADA (DOE) (CANADA)"
"05AH005",19,140,29,"Normal","South Saskatchewan",11,"SEVEN PERSONS CREEK AT MEDICINE HAT","AB",50.02365,-110.68351,3280,90,1910,2020,TRUE,"Seasonal","WATER SURVEY OF CANADA (DOE) (CANADA)"
"05AH037",28,227,18,"Normal","South Saskatchewan",11,"GROS VENTRE CREEK NEAR DUNMORE","AB",49.88778,-110.50711,215,78,1921,2019,FALSE,"Seasonal","WATER SURVEY OF CANADA (DOE) (CANADA)"
"05AH043",2,209,62,"Normal","South Saskatchewan",11,"EAST MCALPINE CREEK NEAR ELKWATER LAKE","AB",49.79457,-110.18655,19.8,43,1976,2019,TRUE,"Seasonal","WATER SURVEY OF CANADA (DOE) (CANADA)"
"05AH044",1,257,15,"Normal","South Saskatchewan",11,"CAVAN LAKE DIVERSION NEAR DUNMORE","AB",49.89692,-110.48235,NA,39,1981,2019,TRUE,"Seasonal","WATER SURVEY OF CANADA (DOE) (CANADA)"
"05AJ001",80,204,81,"Normal","South Saskatchewan",11,"SOUTH SASKATCHEWAN RIVER AT MEDICINE HAT","AB",50.04209,-110.67754,56400,109,1911,2020,TRUE,"Continuous","WATER SURVEY OF CANADA (DOE) (CANADA)"
"05BA001",28,91,65,"Normal","South Saskatchewan",11,"BOW RIVER AT LAKE LOUISE","AB",51.4286,-116.18894,422,67,1910,2020,FALSE,"Seasonal","WATER SURVEY OF CANADA (DOE) (CANADA)"
"05BB001",63,104,198,"High","South Saskatchewan",11,"BOW RIVER AT BANFF","AB",51.17223,-115.57177,2210,110,1909,2019,FALSE,"Continuous","WATER SURVEY OF CANADA (DOE) (CANADA)"
"05BC008",154,113,98,"Low","South Saskatchewan",11,"GOAT CREEK AT BANFF PARK BOUNDARY","AB",51.05833,-115.43056,40.9,42,1976,2018,TRUE,"Continuous","TRANSALTA UTILITIES CORPORATION"
"05BD004",66,295,4,"Normal","South Saskatchewan",11,"CASCADE POWER DIVERSION NEAR BANFF","AB",51.19917,-115.50222,NA,75,1942,2016,TRUE,"Continuous","TRANSALTA UTILITIES CORPORATION"
"05BE004",128,189,48,"Normal","South Saskatchewan",11,"BOW RIVER NEAR SEEBE","AB",51.11944,-115.03333,5170,78,1923,2016,TRUE,"Continuous","TRANSALTA UTILITIES CORPORATION"
"05BE007",61,216,88,"Normal","South Saskatchewan",11,"SPRAY POWER DIVERSION AT CANMORE","AB",51.08889,-115.37361,NA,42,1975,2016,TRUE,"Continuous","TRANSALTA UTILITIES CORPORATION"
"05BF025",150,172,43,"Normal","South Saskatchewan",11,"KANANASKIS RIVER BELOW BARRIER DAM","AB",51.04167,-115.03194,899,42,1975,2016,TRUE,"Continuous","TRANSALTA UTILITIES CORPORATION"
"05BG006",83,196,86,"Normal","South Saskatchewan",11,"WAIPAROUS CREEK NEAR THE MOUTH","AB",51.28281,-114.83841,333,54,1966,2019,FALSE,"Continuous","WATER SURVEY OF CANADA (DOE) (CANADA)"
"05BG010",79,227,59,"Normal","South Saskatchewan",11,"GHOST RIVER ABOVE WAIPAROUS CREEK","AB",51.27003,-114.92553,485,37,1983,2019,TRUE,"Continuous","WATER SURVEY OF CANADA (DOE) (CANADA)"
"05BH004",149,179,37,"Normal","South Saskatchewan",11,"BOW RIVER AT CALGARY","AB",51.05027,-114.05146,7870,109,1911,2020,TRUE,"Continuous","WATER SURVEY OF CANADA (DOE) (CANADA)"
"05BH008",81,209,75,"Normal","South Saskatchewan",11,"BOW RIVER BELOW BEARSPAW DAM","AB",51.09944,-114.22528,7770,33,1983,2016,TRUE,"Continuous","TRANSALTA UTILITIES CORPORATION"
"05BJ001",39,179,147,"Normal","South Saskatchewan",11,"ELBOW RIVER BELOW GLENMORE DAM","AB",51.01279,-114.0932,1240,112,1908,2019,TRUE,"Continuous","WATER SURVEY OF CANADA (DOE) (CANADA)"
"05BK001",69,72,104,"High","South Saskatchewan",11,"FISH CREEK NEAR PRIDDIS","AB",50.88547,-114.32684,261,73,1908,2019,FALSE,"Seasonal","WATER SURVEY OF CANADA (DOE) (CANADA)"
"05BL007",64,162,19,"Normal","South Saskatchewan",11,"STIMSON CREEK NEAR PEKISKO","AB",50.43012,-114.167,236,91,1911,2019,TRUE,"Seasonal","WATER SURVEY OF CANADA (DOE) (CANADA)"
"05BL013",75,112,58,"Normal","South Saskatchewan",11,"THREEPOINT CREEK NEAR MILLARVILLE","AB",50.77113,-114.27874,507,61,1909,2019,FALSE,"Seasonal","WATER SURVEY OF CANADA (DOE) (CANADA)"
"05BL014",66,224,75,"Normal","South Saskatchewan",11,"SHEEP RIVER AT BLACK DIAMOND","AB",50.68855,-114.24491,592,60,1909,2019,FALSE,"Continuous","WATER SURVEY OF CANADA (DOE) (CANADA)"
"05BL015",15,36,314,"High","South Saskatchewan",11,"LITTLE BOW CANAL AT HIGH RIVER","AB",50.5831,-113.86995,NA,108,1910,2020,TRUE,"Continuous","WATER SURVEY OF CANADA (DOE) (CANADA)"
"05BL024",59,218,88,"Normal","South Saskatchewan",11,"HIGHWOOD RIVER NEAR THE MOUTH","AB",50.7825,-113.82267,3950,50,1970,2019,TRUE,"Continuous","WATER SURVEY OF CANADA (DOE) (CANADA)"
"05BL025",9,152,53,"Normal","South Saskatchewan",11,"HIGHWOOD DIVERSION CANAL NEAR HEADGATES","AB",50.55213,-113.98988,NA,42,1977,2018,TRUE,"Seasonal","ALBERTA ENVIRONMENT AND PARKS"
"05BL027",69,96,19,"Normal","South Saskatchewan",11,"TRAP CREEK NEAR LONGVIEW","AB",50.47732,-114.42632,137,40,1979,2019,FALSE,"Seasonal","WATER SURVEY OF CANADA (DOE) (CANADA)"
"05BM002",53,114,47,"Normal","South Saskatchewan",11,"BOW RIVER BELOW CARSELAND DAM","AB",50.82282,-113.44483,15700,69,1910,2020,TRUE,"Seasonal","WATER SURVEY OF CANADA (DOE) (CANADA)"
"05BM004",64,86,64,"Normal","South Saskatchewan",11,"BOW RIVER BELOW BASSANO DAM","AB",50.75018,-112.54225,20300,79,1910,2019,TRUE,"Seasonal","WATER SURVEY OF CANADA (DOE) (CANADA)"
"05BM007",0,116,129,"High","South Saskatchewan",11,"PARFLESH CREEK NEAR CHANCELLOR","AB",50.99449,-112.84209,129,51,1965,2019,TRUE,"Seasonal","WATER SURVEY OF CANADA (DOE) (CANADA)"
"05BM008",29,81,135,"High","South Saskatchewan",11,"CROWFOOT CREEK NEAR CLUNY","AB",50.83462,-112.76305,1370,70,1951,2020,TRUE,"Seasonal","WATER SURVEY OF CANADA (DOE) (CANADA)"
"05BM014",81,160,32,"Normal","South Saskatchewan",11,"WEST ARROWWOOD CREEK NEAR ARROWWOOD","AB",50.76404,-113.23631,777,55,1965,2019,FALSE,"Seasonal","WATER SURVEY OF CANADA (DOE) (CANADA)"
"05BN002",72,105,7,"Normal","South Saskatchewan",11,"TWELVE MILE CREEK NEAR CECIL","AB",50.14938,-111.66543,2800,69,1951,2019,TRUE,"Seasonal","WATER SURVEY OF CANADA (DOE) (CANADA)"
"05BN006",113,84,17,"Low","South Saskatchewan",11,"NEW WEST COULEE NEAR THE MOUTH","AB",50.21665,-112.10495,318,64,1957,2020,TRUE,"Seasonal","WATER SURVEY OF CANADA (DOE) (CANADA)"
"05BN008",153,31,0,"Low","South Saskatchewan",11,"BOW RIVER DEVELOPMENT DRAIN D NEAR VAUXHALL","AB",50.1954,-112.04756,NA,63,1958,2020,TRUE,"Seasonal","WATER SURVEY OF CANADA (DOE) (CANADA)"
"05BN012",85,210,70,"Normal","South Saskatchewan",11,"BOW RIVER NEAR THE MOUTH","AB",50.04728,-111.59092,25300,57,1964,2020,TRUE,"Continuous","WATER SURVEY OF CANADA (DOE) (CANADA)"
"05CA002",84,68,93,"High","South Saskatchewan",11,"JAMES RIVER NEAR SUNDRE","AB",51.92679,-114.68552,821,53,1966,2019,FALSE,"Seasonal","WATER SURVEY OF CANADA (DOE) (CANADA)"
"05CA004",40,55,119,"High","South Saskatchewan",11,"RED DEER RIVER ABOVE PANTHER RIVER","AB",51.66051,-115.41056,941,52,1967,2019,FALSE,"Seasonal","WATER SURVEY OF CANADA (DOE) (CANADA)"
"05CA011",94,35,85,"Low","South Saskatchewan",11,"BEARBERRY CREEK NEAR SUNDRE","AB",51.80208,-114.66315,238,41,1978,2019,FALSE,"Seasonal","WATER SURVEY OF CANADA (DOE) (CANADA)"
"05CB001",94,91,180,"High","South Saskatchewan",11,"LITTLE RED DEER RIVER NEAR THE MOUTH","AB",52.02824,-114.14029,2580,60,1960,2019,FALSE,"Continuous","WATER SURVEY OF CANADA (DOE) (CANADA)"
"05CB002",92,53,100,"High","South Saskatchewan",11,"LITTLE RED DEER RIVER NEAR WATER VALLEY","AB",51.51147,-114.67097,451,59,1961,2020,FALSE,"Seasonal","WATER SURVEY OF CANADA (DOE) (CANADA)"
"05CB004",105,110,150,"High","South Saskatchewan",11,"RAVEN RIVER NEAR RAVEN","AB",52.08928,-114.47748,645,49,1971,2019,FALSE,"Continuous","WATER SURVEY OF CANADA (DOE) (CANADA)"
"05CC001",66,171,128,"Normal","South Saskatchewan",11,"BLINDMAN RIVER NEAR BLACKFALDS","AB",52.357,-113.795,1800,65,1916,2019,FALSE,"Continuous","WATER SURVEY OF CANADA (DOE) (CANADA)"
"05CC002",102,87,176,"High","South Saskatchewan",11,"RED DEER RIVER AT RED DEER","AB",52.27053,-112.17689,11600,108,1912,2020,TRUE,"Continuous","WATER SURVEY OF CANADA (DOE) (CANADA)"
"05CC007",78,146,141,"Normal","South Saskatchewan",11,"MEDICINE RIVER NEAR ECKVILLE","AB",52.31956,-114.34417,1920,58,1962,2019,FALSE,"Continuous","WATER SURVEY OF CANADA (DOE) (CANADA)"
"05CC011",28,111,106,"Normal","South Saskatchewan",11,"WASKASOO CREEK AT RED DEER","AB",52.26849,-113.79985,487,35,1984,2019,FALSE,"Seasonal","WATER SURVEY OF CANADA (DOE) (CANADA)"
"05CD006",0,146,99,"Normal","South Saskatchewan",11,"HAYNES CREEK NEAR HAYNES","AB",52.33191,-113.36296,165,41,1978,2019,FALSE,"Seasonal","WATER SURVEY OF CANADA (DOE) (CANADA)"
"05CD007",27,114,104,"Normal","South Saskatchewan",11,"PARLBY CREEK AT ALIX","AB",52.40747,-113.19576,511,36,1983,2019,FALSE,"Seasonal","WATER SURVEY OF CANADA (DOE) (CANADA)"
"05CD902",105,96,13,"Low","South Saskatchewan",11,"PARLBY CREEK NEAR MIRROR","AB",52.49111,-113.10417,866,39,1981,2019,TRUE,"Seasonal","ALBERTA ENVIRONMENTAL PROTECTION"
"05CE001",97,92,176,"High","South Saskatchewan",11,"RED DEER RIVER AT DRUMHELLER","AB",51.46727,-112.71149,24900,79,1915,2020,TRUE,"Continuous","WATER SURVEY OF CANADA (DOE) (CANADA)"
"05CE002",45,111,89,"Normal","South Saskatchewan",11,"KNEEHILLS CREEK NEAR DRUMHELLER","AB",51.46946,-112.97827,2430,75,1921,2019,FALSE,"Seasonal","WATER SURVEY OF CANADA (DOE) (CANADA)"
"05CE005",26,140,79,"Normal","South Saskatchewan",11,"ROSEBUD RIVER AT REDLAND","AB",51.29354,-113.0113,3570,70,1951,2020,TRUE,"Seasonal","WATER SURVEY OF CANADA (DOE) (CANADA)"
"05CE006",35,137,73,"Normal","South Saskatchewan",11,"ROSEBUD RIVER BELOW CARSTAIRS CREEK","AB",51.41583,-113.72778,753,64,1957,2020,FALSE,"Seasonal","WATER SURVEY OF CANADA (DOE) (CANADA)"
"05CE007",19,86,140,"High","South Saskatchewan",11,"THREEHILLS CREEK NEAR CARBON","AB",51.56446,-113.07342,1080,55,1965,2020,TRUE,"Seasonal","WATER SURVEY OF CANADA (DOE) (CANADA)"
"05CE010",0,91,154,"High","South Saskatchewan",11,"RAY CREEK NEAR INNISFAIL","AB",52.00117,-113.59972,44.4,47,1967,2019,FALSE,"Seasonal","WATER SURVEY OF CANADA (DOE) (CANADA)"
"05CE011",0,89,156,"High","South Saskatchewan",11,"RENWICK CREEK NEAR THREE HILLS","AB",51.71784,-113.36112,58.9,46,1967,2019,FALSE,"Seasonal","WATER SURVEY OF CANADA (DOE) (CANADA)"
"05CE018",23,88,134,"High","South Saskatchewan",11,"THREEHILLS CREEK BELOW RAY CREEK","AB",51.99747,-113.56856,199,48,1971,2019,FALSE,"Seasonal","WATER SURVEY OF CANADA (DOE) (CANADA)"
"05CG004",0,67,178,"High","South Saskatchewan",11,"BULLPOUND CREEK NEAR WATTS","AB",51.66211,-112.08397,200,40,1980,2019,FALSE,"Seasonal","WATER SURVEY OF CANADA (DOE) (CANADA)"
"05CG006",0,80,165,"High","South Saskatchewan",11,"FISH CREEK ABOVE LITTLE FISH LAKE","AB",51.3908,-112.20187,118,34,1984,2019,FALSE,"Seasonal","WATER SURVEY OF CANADA (DOE) (CANADA)"
"05CG007",15,209,21,"Normal","South Saskatchewan",11,"ALBERTA POWER LIMITED COOLING POND OUTLET","AB",51.42711,-111.8014,NA,34,1985,2019,TRUE,"Seasonal","WATER SURVEY OF CANADA (DOE) (CANADA)"
"05CH007",6,106,133,"High","South Saskatchewan",11,"BERRY CREEK NEAR THE MOUTH","AB",50.85509,-111.59061,3720,56,1964,2019,TRUE,"Seasonal","WATER SURVEY OF CANADA (DOE) (CANADA)"
"05CH011",27,105,113,"High","South Saskatchewan",11,"BERRY CREEK RESERVOIR OUTLET","AB",51.23974,-111.63142,1930,35,1983,2019,TRUE,"Seasonal","WATER SURVEY OF CANADA (DOE) (CANADA)"
"05CJ006",119,81,45,"Low","South Saskatchewan",11,"ONETREE CREEK NEAR PATRICIA","AB",50.73393,-111.68934,498,70,1951,2020,TRUE,"Seasonal","WATER SURVEY OF CANADA (DOE) (CANADA)"
"05CK004",91,67,207,"High","South Saskatchewan",11,"RED DEER RIVER NEAR BINDLOSS","AB",50.90269,-110.2995,47800,61,1960,2020,TRUE,"Continuous","WATER SURVEY OF CANADA (DOE) (CANADA)"
"05CK005",0,157,88,"Normal","South Saskatchewan",11,"ALKALI CREEK NEAR THE MOUTH","AB",50.89896,-110.508,590,57,1962,2019,FALSE,"Seasonal","WATER SURVEY OF CANADA (DOE) (CANADA)"
"05CK006",0,135,110,"Normal","South Saskatchewan",11,"KENNEDY COULEE NEAR ACADIA VALLEY","AB",51.09586,-110.25898,939,38,1982,2019,TRUE,"Seasonal","WATER SURVEY OF CANADA (DOE) (CANADA)"
"05DA009",35,159,171,"High","North Saskatchewan",10,"NORTH SASKATCHEWAN RIVER AT WHIRLPOOL POINT","AB",52.00119,-116.47093,1920,49,1970,2019,FALSE,"Continuous","WATER SURVEY OF CANADA (DOE) (CANADA)"
"05DA010",92,122,151,"High","North Saskatchewan",10,"SILVERHORN CREEK NEAR THE MOUTH","AB",51.79992,-116.58395,21,48,1971,2019,FALSE,"Continuous","WATER SURVEY OF CANADA (DOE) (CANADA)"
"05DB002",153,125,87,"Low","North Saskatchewan",10,"PRAIRIE CREEK NEAR ROCKY MOUNTAIN HOUSE","AB",52.27386,-114.92918,844,72,1922,2019,FALSE,"Continuous","WATER SURVEY OF CANADA (DOE) (CANADA)"
"05DB005",85,81,79,"Low","North Saskatchewan",10,"PRAIRIE CREEK BELOW LICK CREEK","AB",52.25457,-115.28792,208,47,1973,2020,FALSE,"Seasonal","WATER SURVEY OF CANADA (DOE) (CANADA)"
"05DB006",60,112,193,"High","North Saskatchewan",10,"CLEARWATER RIVER NEAR DOVERCOURT","AB",52.2521,-114.85582,2250,44,1975,2019,FALSE,"Continuous","WATER SURVEY OF CANADA (DOE) (CANADA)"
"05DC006",41,80,244,"High","North Saskatchewan",10,"RAM RIVER NEAR THE MOUTH","AB",52.36859,-115.42218,1850,53,1967,2019,FALSE,"Continuous","ALBERTA ENVIRONMENTAL PROTECTION"
"05DC010",103,133,129,"Normal","North Saskatchewan",10,"NORTH SASKATCHEWAN RIVER BELOW BIGHORN PLANT","AB",52.31,-116.3225,3890,46,1972,2017,TRUE,"Continuous","TRANSALTA UTILITIES CORPORATION"
"05DC011",56,64,64,"High","North Saskatchewan",10,"NORTH RAM RIVER AT FORESTRY ROAD","AB",52.28296,-115.99929,347,45,1975,2019,FALSE,"Seasonal","WATER SURVEY OF CANADA (DOE) (CANADA)"
"05DC012",82,140,143,"High","North Saskatchewan",10,"BAPTISTE RIVER NEAR THE MOUTH","AB",52.66382,-115.07578,1350,37,1984,2020,FALSE,"Continuous","ALBERTA ENVIRONMENTAL PROTECTION"
"05DD004",56,68,60,"Normal","North Saskatchewan",10,"BROWN CREEK AT FORESTRY ROAD","AB",52.76396,-116.36081,219,49,1915,2020,FALSE,"Seasonal","WATER SURVEY OF CANADA (DOE) (CANADA)"
"05DD005",51,136,178,"High","North Saskatchewan",10,"BRAZEAU RIVER BELOW BRAZEAU PLANT","AB",52.9125,-115.36389,5660,64,1956,2019,TRUE,"Continuous","TRANSALTA UTILITIES CORPORATION"
"05DE009",102,80,63,"Low","North Saskatchewan",10,"TOMAHAWK CREEK NEAR TOMAHAWK","AB",53.40585,-114.76311,94.2,35,1984,2019,FALSE,"Seasonal","WATER SURVEY OF CANADA (DOE) (CANADA)"
"05DF001",64,111,190,"High","North Saskatchewan",10,"NORTH SASKATCHEWAN RIVER AT EDMONTON","AB",53.53721,-113.4855,28100,110,1911,2020,TRUE,"Continuous","WATER SURVEY OF CANADA (DOE) (CANADA)"
"05DF003",48,90,107,"High","North Saskatchewan",10,"BLACKMUD CREEK NEAR ELLERSLIE","AB",53.41455,-113.51651,643,45,1935,2019,FALSE,"Seasonal","WATER SURVEY OF CANADA (DOE) (CANADA)"
"05EA001",89,156,0,"Normal","North Saskatchewan",10,"STURGEON RIVER NEAR FORT SASKATCHEWAN","AB",53.83276,-113.28236,3250,99,1914,2019,FALSE,"Seasonal","WATER SURVEY OF CANADA (DOE) (CANADA)"
"05EA005",97,261,7,"Normal","North Saskatchewan",10,"STURGEON RIVER NEAR VILLENEUVE","AB",53.65535,-113.76247,1890,56,1914,2018,FALSE,"Continuous","WATER SURVEY OF CANADA (DOE) (CANADA)"
"05EA010",84,83,78,"Low","North Saskatchewan",10,"STURGEON RIVER NEAR MAGNOLIA BRIDGE","AB",53.59139,-114.85972,121,38,1981,2019,FALSE,"Seasonal","WATER SURVEY OF CANADA (DOE) (CANADA)"
"05EB902",43,101,91,"Normal","North Saskatchewan",10,"POINTE-AUX-PINS CREEK NEAR ARDROSSAN","AB",53.59944,-113.16361,106,41,1979,2019,FALSE,"Seasonal","ALBERTA ENVIRONMENTAL PROTECTION"
"05EC002",15,222,8,"Normal","North Saskatchewan",10,"WASKATENAU CREEK NEAR WASKATENAU","AB",54.12306,-112.78278,313,54,1966,2019,FALSE,"Seasonal","ALBERTA ENVIRONMENTAL PROTECTION"
"05EE006",0,68,177,"High","North Saskatchewan",10,"VERMILION RIVER TRIBUTARY NEAR BRUCE","AB",53.29409,-112.04985,46.4,43,1978,2020,FALSE,"Seasonal","WATER SURVEY OF CANADA (DOE) (CANADA)"
"05EF001",80,76,209,"High","North Saskatchewan",10,"NORTH SASKATCHEWAN RIVER NEAR DEER CREEK","SK",53.52319,-109.61789,57200,72,1917,2019,TRUE,"Continuous","WATER SURVEY OF CANADA (DOE) (CANADA)"
"05EF005",0,63,140,"High","North Saskatchewan",10,"BIG GULLY CREEK NEAR MAIDSTONE","SK",53.24417,-109.29583,1620,50,1970,2019,FALSE,"Seasonal","WATER SECURITY AGENCY"
"05EG005",2,101,100,"Normal","North Saskatchewan",10,"TURTLELAKE RIVER NEAR TURTLEFORD","SK",53.38806,-108.96778,2310,54,1965,2018,TRUE,"Seasonal","WATER SECURITY AGENCY"
"05FA001",152,178,35,"Normal","North Saskatchewan",10,"BATTLE RIVER NEAR PONOKA","AB",52.66325,-113.58141,1820,74,1913,2019,FALSE,"Continuous","WATER SURVEY OF CANADA (DOE) (CANADA)"
"05FE004",55,251,59,"Normal","North Saskatchewan",10,"BATTLE RIVER NEAR THE SASKATCHEWAN BOUNDARY","AB",52.85644,-110.01934,25100,42,1978,2019,TRUE,"Continuous","WATER SURVEY OF CANADA (DOE) (CANADA)"
"05FF003",0,48,197,"High","North Saskatchewan",10,"CUT KNIFE CREEK NEAR CUT KNIFE","SK",52.755,-108.78111,403,53,1964,2019,FALSE,"Seasonal","WATER SECURITY AGENCY"
"05GA003",10,94,141,"High","North Saskatchewan",10,"MONITOR CREEK NEAR MONITOR","AB",51.96955,-110.57635,1430,64,1954,2019,TRUE,"Seasonal","WATER SURVEY OF CANADA (DOE) (CANADA)"
"05GA008",0,85,121,"High","North Saskatchewan",10,"SOUNDING CREEK NEAR OYEN","AB",51.56666,-110.4736,2990,49,1968,2019,FALSE,"Seasonal","WATER SURVEY OF CANADA (DOE) (CANADA)"
"05GB004",0,225,20,"Normal","North Saskatchewan",10,"MUDDY LAKE INFLOW NEAR REVENUE","SK",52.23056,-109.03611,252,48,1971,2018,FALSE,"Seasonal","WATER SECURITY AGENCY"
"05GC006",0,103,99,"Normal","North Saskatchewan",10,"EAGLE CREEK NEAR ENVIRON","SK",52.23056,-107.37778,11900,59,1962,2020,TRUE,"Seasonal","WATER SECURITY AGENCY"
"05GC007",0,172,31,"Normal","North Saskatchewan",10,"OPUNTIA LAKE WEST INFLOW","SK",51.7875,-108.625,94.5,61,1960,2020,FALSE,"Seasonal","WATER SECURITY AGENCY"
"05GF001",0,138,60,"Normal","North Saskatchewan",10,"SHELL BROOK NEAR SHELLBROOK","SK",53.25278,-106.38583,2560,55,1964,2018,FALSE,"Seasonal","WATER SECURITY AGENCY"
"05GF002",0,123,74,"Normal","North Saskatchewan",10,"STURGEON RIVER NEAR PRINCE ALBERT","SK",53.21306,-105.885,5100,52,1966,2017,FALSE,"Seasonal","WATER SECURITY AGENCY"
"05GG001",70,92,203,"High","North Saskatchewan",10,"NORTH SASKATCHEWAN RIVER AT PRINCE ALBERT","SK",53.20344,-105.77214,131000,110,1910,2019,TRUE,"Continuous","WATER SURVEY OF CANADA (DOE) (CANADA)"
"05GG010",0,142,72,"Normal","North Saskatchewan",10,"GARDEN RIVER NEAR HENRIBOURG","SK",53.39389,-105.61083,903,53,1966,2018,FALSE,"Seasonal","WATER SECURITY AGENCY"
